[
    {
        "cidade": "Abadia de Goiás",
        "uf": "GO",
        "lat": -16.7573,
        "lng": -49.4412
    },
    {
        "cidade": "Abadia dos Dourados",
        "uf": "MG",
        "lat": -18.4831,
        "lng": -47.3916
    },
    {
        "cidade": "Abadiânia",
        "uf": "GO",
        "lat": -16.197,
        "lng": -48.7057
    },
    {
        "cidade": "Abaeté",
        "uf": "MG",
        "lat": -19.1551,
        "lng": -45.4444
    },
    {
        "cidade": "Abaetetuba",
        "uf": "PA",
        "lat": -1.72183,
        "lng": -48.8788
    },
    {
        "cidade": "Abaiara",
        "uf": "CE",
        "lat": -7.34588,
        "lng": -39.0416
    },
    {
        "cidade": "Abaíra",
        "uf": "BA",
        "lat": -13.2488,
        "lng": -41.6619
    },
    {
        "cidade": "Abaré",
        "uf": "BA",
        "lat": -8.72073,
        "lng": -39.1162
    },
    {
        "cidade": "Abatiá",
        "uf": "PR",
        "lat": -23.3049,
        "lng": -50.3133
    },
    {
        "cidade": "Abdon Batista",
        "uf": "SC",
        "lat": -27.6126,
        "lng": -51.0233
    },
    {
        "cidade": "Abel Figueiredo",
        "uf": "PA",
        "lat": -4.95333,
        "lng": -48.3933
    },
    {
        "cidade": "Abelardo Luz",
        "uf": "SC",
        "lat": -26.5716,
        "lng": -52.3229
    },
    {
        "cidade": "Abre Campo",
        "uf": "MG",
        "lat": -20.2996,
        "lng": -42.4743
    },
    {
        "cidade": "Abreu e Lima",
        "uf": "PE",
        "lat": -7.90072,
        "lng": -34.8984
    },
    {
        "cidade": "Abreulândia",
        "uf": "TO",
        "lat": -9.62101,
        "lng": -49.1518
    },
    {
        "cidade": "Acaiaca",
        "uf": "MG",
        "lat": -20.359,
        "lng": -43.1439
    },
    {
        "cidade": "Açailândia",
        "uf": "MA",
        "lat": -4.94714,
        "lng": -47.5004
    },
    {
        "cidade": "Acajutiba",
        "uf": "BA",
        "lat": -11.6575,
        "lng": -38.0197
    },
    {
        "cidade": "Acará",
        "uf": "PA",
        "lat": -1.95383,
        "lng": -48.1985
    },
    {
        "cidade": "Acarape",
        "uf": "CE",
        "lat": -4.22083,
        "lng": -38.7055
    },
    {
        "cidade": "Acaraú",
        "uf": "CE",
        "lat": -2.88769,
        "lng": -40.1183
    },
    {
        "cidade": "Acari",
        "uf": "RN",
        "lat": -6.4282,
        "lng": -36.6347
    },
    {
        "cidade": "Acauã",
        "uf": "PI",
        "lat": -8.21954,
        "lng": -41.0831
    },
    {
        "cidade": "Aceguá",
        "uf": "RS",
        "lat": -31.8665,
        "lng": -54.1615
    },
    {
        "cidade": "Acopiara",
        "uf": "CE",
        "lat": -6.08911,
        "lng": -39.448
    },
    {
        "cidade": "Acorizal",
        "uf": "MT",
        "lat": -15.194,
        "lng": -56.3632
    },
    {
        "cidade": "Acrelândia",
        "uf": "AC",
        "lat": -9.82581,
        "lng": -66.8972
    },
    {
        "cidade": "Acreúna",
        "uf": "GO",
        "lat": -17.396,
        "lng": -50.3749
    },
    {
        "cidade": "Açu",
        "uf": "RN",
        "lat": -5.58362,
        "lng": -36.914
    },
    {
        "cidade": "Açucena",
        "uf": "MG",
        "lat": -19.0671,
        "lng": -42.5419
    },
    {
        "cidade": "Adamantina",
        "uf": "SP",
        "lat": -21.682,
        "lng": -51.0737
    },
    {
        "cidade": "Adelândia",
        "uf": "GO",
        "lat": -16.4127,
        "lng": -50.1657
    },
    {
        "cidade": "Adolfo",
        "uf": "SP",
        "lat": -21.2325,
        "lng": -49.6451
    },
    {
        "cidade": "Adrianópolis",
        "uf": "PR",
        "lat": -24.6606,
        "lng": -48.9922
    },
    {
        "cidade": "Adustina",
        "uf": "BA",
        "lat": -10.5437,
        "lng": -38.1113
    },
    {
        "cidade": "Afogados da Ingazeira",
        "uf": "PE",
        "lat": -7.74312,
        "lng": -37.631
    },
    {
        "cidade": "Afonso Bezerra",
        "uf": "RN",
        "lat": -5.49229,
        "lng": -36.5075
    },
    {
        "cidade": "Afonso Cláudio",
        "uf": "ES",
        "lat": -20.0778,
        "lng": -41.1261
    },
    {
        "cidade": "Afonso Cunha",
        "uf": "MA",
        "lat": -4.13631,
        "lng": -43.3275
    },
    {
        "cidade": "Afrânio",
        "uf": "PE",
        "lat": -8.51136,
        "lng": -41.0095
    },
    {
        "cidade": "Afuá",
        "uf": "PA",
        "lat": -0.154874,
        "lng": -50.3861
    },
    {
        "cidade": "Agrestina",
        "uf": "PE",
        "lat": -8.45966,
        "lng": -35.9447
    },
    {
        "cidade": "Agricolândia",
        "uf": "PI",
        "lat": -5.79676,
        "lng": -42.6664
    },
    {
        "cidade": "Agrolândia",
        "uf": "SC",
        "lat": -27.4087,
        "lng": -49.822
    },
    {
        "cidade": "Agronômica",
        "uf": "SC",
        "lat": -27.2662,
        "lng": -49.708
    },
    {
        "cidade": "Água Azul do Norte",
        "uf": "PA",
        "lat": -6.79053,
        "lng": -50.4791
    },
    {
        "cidade": "Água Boa",
        "uf": "MG",
        "lat": -17.9914,
        "lng": -42.3806
    },
    {
        "cidade": "Água Boa",
        "uf": "MT",
        "lat": -14.051,
        "lng": -52.1601
    },
    {
        "cidade": "Água Branca",
        "uf": "PI",
        "lat": -5.88856,
        "lng": -42.637
    },
    {
        "cidade": "Água Branca",
        "uf": "PB",
        "lat": -7.51144,
        "lng": -37.6357
    },
    {
        "cidade": "Água Branca",
        "uf": "AL",
        "lat": -9.262,
        "lng": -37.938
    },
    {
        "cidade": "Água Clara",
        "uf": "MS",
        "lat": -20.4452,
        "lng": -52.879
    },
    {
        "cidade": "Água Comprida",
        "uf": "MG",
        "lat": -20.0576,
        "lng": -48.1069
    },
    {
        "cidade": "Água Doce",
        "uf": "SC",
        "lat": -26.9985,
        "lng": -51.5528
    },
    {
        "cidade": "Água Doce do Maranhão",
        "uf": "MA",
        "lat": -2.84048,
        "lng": -42.1189
    },
    {
        "cidade": "Água Doce do Norte",
        "uf": "ES",
        "lat": -18.5482,
        "lng": -40.9854
    },
    {
        "cidade": "Água Fria",
        "uf": "BA",
        "lat": -11.8618,
        "lng": -38.7639
    },
    {
        "cidade": "Água Fria de Goiás",
        "uf": "GO",
        "lat": -14.9778,
        "lng": -47.7823
    },
    {
        "cidade": "Água Limpa",
        "uf": "GO",
        "lat": -18.0771,
        "lng": -48.7603
    },
    {
        "cidade": "Água Nova",
        "uf": "RN",
        "lat": -6.20351,
        "lng": -38.2941
    },
    {
        "cidade": "Água Preta",
        "uf": "PE",
        "lat": -8.70609,
        "lng": -35.5263
    },
    {
        "cidade": "Água Santa",
        "uf": "RS",
        "lat": -28.1672,
        "lng": -52.031
    },
    {
        "cidade": "Aguaí",
        "uf": "SP",
        "lat": -22.0572,
        "lng": -46.9735
    },
    {
        "cidade": "Aguanil",
        "uf": "MG",
        "lat": -20.9439,
        "lng": -45.3915
    },
    {
        "cidade": "Águas Belas",
        "uf": "PE",
        "lat": -9.11125,
        "lng": -37.1226
    },
    {
        "cidade": "Águas da Prata",
        "uf": "SP",
        "lat": -21.9319,
        "lng": -46.7176
    },
    {
        "cidade": "Águas de Chapecó",
        "uf": "SC",
        "lat": -27.0754,
        "lng": -52.9808
    },
    {
        "cidade": "Águas de Lindóia",
        "uf": "SP",
        "lat": -22.4733,
        "lng": -46.6314
    },
    {
        "cidade": "Águas de Santa Bárbara",
        "uf": "SP",
        "lat": -22.8812,
        "lng": -49.2421
    },
    {
        "cidade": "Águas de São Pedro",
        "uf": "SP",
        "lat": -22.5977,
        "lng": -47.8734
    },
    {
        "cidade": "Águas Formosas",
        "uf": "MG",
        "lat": -17.0802,
        "lng": -40.9384
    },
    {
        "cidade": "Águas Frias",
        "uf": "SC",
        "lat": -26.8794,
        "lng": -52.8568
    },
    {
        "cidade": "Águas Lindas de Goiás",
        "uf": "GO",
        "lat": -15.7617,
        "lng": -48.2816
    },
    {
        "cidade": "Águas Mornas",
        "uf": "SC",
        "lat": -27.6963,
        "lng": -48.8243
    },
    {
        "cidade": "Águas Vermelhas",
        "uf": "MG",
        "lat": -15.7431,
        "lng": -41.4571
    },
    {
        "cidade": "Agudo",
        "uf": "RS",
        "lat": -29.6447,
        "lng": -53.2515
    },
    {
        "cidade": "Agudos",
        "uf": "SP",
        "lat": -22.4694,
        "lng": -48.9863
    },
    {
        "cidade": "Agudos do Sul",
        "uf": "PR",
        "lat": -25.9899,
        "lng": -49.3343
    },
    {
        "cidade": "Águia Branca",
        "uf": "ES",
        "lat": -18.9846,
        "lng": -40.7437
    },
    {
        "cidade": "Aguiar",
        "uf": "PB",
        "lat": -7.0918,
        "lng": -38.1681
    },
    {
        "cidade": "Aguiarnópolis",
        "uf": "TO",
        "lat": -6.55409,
        "lng": -47.4702
    },
    {
        "cidade": "Aimorés",
        "uf": "MG",
        "lat": -19.5007,
        "lng": -41.0746
    },
    {
        "cidade": "Aiquara",
        "uf": "BA",
        "lat": -14.1269,
        "lng": -39.8937
    },
    {
        "cidade": "Aiuaba",
        "uf": "CE",
        "lat": -6.57122,
        "lng": -40.1178
    },
    {
        "cidade": "Aiuruoca",
        "uf": "MG",
        "lat": -21.9736,
        "lng": -44.6042
    },
    {
        "cidade": "Ajuricaba",
        "uf": "RS",
        "lat": -28.2342,
        "lng": -53.7757
    },
    {
        "cidade": "Alagoa",
        "uf": "MG",
        "lat": -22.171,
        "lng": -44.6413
    },
    {
        "cidade": "Alagoa Grande",
        "uf": "PB",
        "lat": -7.03943,
        "lng": -35.6206
    },
    {
        "cidade": "Alagoa Nova",
        "uf": "PB",
        "lat": -7.05377,
        "lng": -35.7591
    },
    {
        "cidade": "Alagoinha",
        "uf": "PB",
        "lat": -6.94657,
        "lng": -35.5332
    },
    {
        "cidade": "Alagoinha",
        "uf": "PE",
        "lat": -8.4665,
        "lng": -36.7788
    },
    {
        "cidade": "Alagoinha do Piauí",
        "uf": "PI",
        "lat": -7.00039,
        "lng": -40.9282
    },
    {
        "cidade": "Alagoinhas",
        "uf": "BA",
        "lat": -12.1335,
        "lng": -38.4208
    },
    {
        "cidade": "Alambari",
        "uf": "SP",
        "lat": -23.5503,
        "lng": -47.898
    },
    {
        "cidade": "Albertina",
        "uf": "MG",
        "lat": -22.2018,
        "lng": -46.6139
    },
    {
        "cidade": "Alcântara",
        "uf": "MA",
        "lat": -2.39574,
        "lng": -44.4062
    },
    {
        "cidade": "Alcântaras",
        "uf": "CE",
        "lat": -3.58537,
        "lng": -40.5479
    },
    {
        "cidade": "Alcantil",
        "uf": "PB",
        "lat": -7.73668,
        "lng": -36.0511
    },
    {
        "cidade": "Alcinópolis",
        "uf": "MS",
        "lat": -18.3255,
        "lng": -53.7042
    },
    {
        "cidade": "Alcobaça",
        "uf": "BA",
        "lat": -17.5195,
        "lng": -39.2036
    },
    {
        "cidade": "Aldeias Altas",
        "uf": "MA",
        "lat": -4.62621,
        "lng": -43.4689
    },
    {
        "cidade": "Alecrim",
        "uf": "RS",
        "lat": -27.6579,
        "lng": -54.7649
    },
    {
        "cidade": "Alegre",
        "uf": "ES",
        "lat": -20.758,
        "lng": -41.5382
    },
    {
        "cidade": "Alegrete",
        "uf": "RS",
        "lat": -29.7902,
        "lng": -55.7949
    },
    {
        "cidade": "Alegrete do Piauí",
        "uf": "PI",
        "lat": -7.24196,
        "lng": -40.8566
    },
    {
        "cidade": "Alegria",
        "uf": "RS",
        "lat": -27.8345,
        "lng": -54.0557
    },
    {
        "cidade": "Além Paraíba",
        "uf": "MG",
        "lat": -21.8797,
        "lng": -42.7176
    },
    {
        "cidade": "Alenquer",
        "uf": "PA",
        "lat": -1.94623,
        "lng": -54.7384
    },
    {
        "cidade": "Alexandria",
        "uf": "RN",
        "lat": -6.40533,
        "lng": -38.0142
    },
    {
        "cidade": "Alexânia",
        "uf": "GO",
        "lat": -16.0834,
        "lng": -48.5076
    },
    {
        "cidade": "Alfenas",
        "uf": "MG",
        "lat": -21.4256,
        "lng": -45.9477
    },
    {
        "cidade": "Alfredo Chaves",
        "uf": "ES",
        "lat": -20.6396,
        "lng": -40.7543
    },
    {
        "cidade": "Alfredo Marcondes",
        "uf": "SP",
        "lat": -21.9527,
        "lng": -51.414
    },
    {
        "cidade": "Alfredo Vasconcelos",
        "uf": "MG",
        "lat": -21.1535,
        "lng": -43.7718
    },
    {
        "cidade": "Alfredo Wagner",
        "uf": "SC",
        "lat": -27.7001,
        "lng": -49.3273
    },
    {
        "cidade": "Algodão de Jandaíra",
        "uf": "PB",
        "lat": -6.89292,
        "lng": -36.0129
    },
    {
        "cidade": "Alhandra",
        "uf": "PB",
        "lat": -7.42977,
        "lng": -34.9057
    },
    {
        "cidade": "Aliança",
        "uf": "PE",
        "lat": -7.60398,
        "lng": -35.2227
    },
    {
        "cidade": "Aliança do Tocantins",
        "uf": "TO",
        "lat": -11.3056,
        "lng": -48.9361
    },
    {
        "cidade": "Almadina",
        "uf": "BA",
        "lat": -14.7089,
        "lng": -39.6415
    },
    {
        "cidade": "Almas",
        "uf": "TO",
        "lat": -11.5706,
        "lng": -47.1792
    },
    {
        "cidade": "Almeirim",
        "uf": "PA",
        "lat": -1.52904,
        "lng": -52.5788
    },
    {
        "cidade": "Almenara",
        "uf": "MG",
        "lat": -16.1785,
        "lng": -40.6942
    },
    {
        "cidade": "Almino Afonso",
        "uf": "RN",
        "lat": -6.1475,
        "lng": -37.7636
    },
    {
        "cidade": "Almirante Tamandaré",
        "uf": "PR",
        "lat": -25.3188,
        "lng": -49.3037
    },
    {
        "cidade": "Almirante Tamandaré do Sul",
        "uf": "RS",
        "lat": -28.1149,
        "lng": -52.9142
    },
    {
        "cidade": "Aloândia",
        "uf": "GO",
        "lat": -17.7292,
        "lng": -49.4769
    },
    {
        "cidade": "Alpercata",
        "uf": "MG",
        "lat": -18.974,
        "lng": -41.97
    },
    {
        "cidade": "Alpestre",
        "uf": "RS",
        "lat": -27.2502,
        "lng": -53.0341
    },
    {
        "cidade": "Alpinópolis",
        "uf": "MG",
        "lat": -20.8631,
        "lng": -46.3878
    },
    {
        "cidade": "Alta Floresta",
        "uf": "MT",
        "lat": -9.86674,
        "lng": -56.0867
    },
    {
        "cidade": "Alta Floresta D'Oeste",
        "uf": "RO",
        "lat": -11.9283,
        "lng": -61.9953
    },
    {
        "cidade": "Altair",
        "uf": "SP",
        "lat": -20.5242,
        "lng": -49.0571
    },
    {
        "cidade": "Altamira",
        "uf": "PA",
        "lat": -3.20407,
        "lng": -52.21
    },
    {
        "cidade": "Altamira do Maranhão",
        "uf": "MA",
        "lat": -4.16598,
        "lng": -45.4706
    },
    {
        "cidade": "Altamira do Paraná",
        "uf": "PR",
        "lat": -24.7983,
        "lng": -52.7128
    },
    {
        "cidade": "Altaneira",
        "uf": "CE",
        "lat": -6.99837,
        "lng": -39.7356
    },
    {
        "cidade": "Alterosa",
        "uf": "MG",
        "lat": -21.2488,
        "lng": -46.1387
    },
    {
        "cidade": "Altinho",
        "uf": "PE",
        "lat": -8.48482,
        "lng": -36.0644
    },
    {
        "cidade": "Altinópolis",
        "uf": "SP",
        "lat": -21.0214,
        "lng": -47.3712
    },
    {
        "cidade": "Alto Alegre",
        "uf": "SP",
        "lat": -21.5811,
        "lng": -50.168
    },
    {
        "cidade": "Alto Alegre",
        "uf": "RR",
        "lat": 2.98858,
        "lng": -61.3072
    },
    {
        "cidade": "Alto Alegre",
        "uf": "RS",
        "lat": -28.7769,
        "lng": -52.9893
    },
    {
        "cidade": "Alto Alegre do Maranhão",
        "uf": "MA",
        "lat": -4.213,
        "lng": -44.446
    },
    {
        "cidade": "Alto Alegre do Pindaré",
        "uf": "MA",
        "lat": -3.66689,
        "lng": -45.8421
    },
    {
        "cidade": "Alto Alegre dos Parecis",
        "uf": "RO",
        "lat": -12.132,
        "lng": -61.835
    },
    {
        "cidade": "Alto Araguaia",
        "uf": "MT",
        "lat": -17.3153,
        "lng": -53.2181
    },
    {
        "cidade": "Alto Bela Vista",
        "uf": "SC",
        "lat": -27.4333,
        "lng": -51.9044
    },
    {
        "cidade": "Alto Boa Vista",
        "uf": "MT",
        "lat": -11.6732,
        "lng": -51.3883
    },
    {
        "cidade": "Alto Caparaó",
        "uf": "MG",
        "lat": -20.431,
        "lng": -41.8738
    },
    {
        "cidade": "Alto do Rodrigues",
        "uf": "RN",
        "lat": -5.28186,
        "lng": -36.75
    },
    {
        "cidade": "Alto Feliz",
        "uf": "RS",
        "lat": -29.3919,
        "lng": -51.3123
    },
    {
        "cidade": "Alto Garças",
        "uf": "MT",
        "lat": -16.9462,
        "lng": -53.5272
    },
    {
        "cidade": "Alto Horizonte",
        "uf": "GO",
        "lat": -14.1978,
        "lng": -49.3378
    },
    {
        "cidade": "Alto Jequitibá",
        "uf": "MG",
        "lat": -20.4208,
        "lng": -41.967
    },
    {
        "cidade": "Alto Longá",
        "uf": "PI",
        "lat": -5.25634,
        "lng": -42.2096
    },
    {
        "cidade": "Alto Paraguai",
        "uf": "MT",
        "lat": -14.5137,
        "lng": -56.4776
    },
    {
        "cidade": "Alto Paraíso",
        "uf": "PR",
        "lat": -26.1146,
        "lng": -52.7469
    },
    {
        "cidade": "Alto Paraíso",
        "uf": "RO",
        "lat": -9.71429,
        "lng": -63.3188
    },
    {
        "cidade": "Alto Paraíso de Goiás",
        "uf": "GO",
        "lat": -14.1305,
        "lng": -47.51
    },
    {
        "cidade": "Alto Paraná",
        "uf": "PR",
        "lat": -23.1312,
        "lng": -52.3189
    },
    {
        "cidade": "Alto Parnaíba",
        "uf": "MA",
        "lat": -9.10273,
        "lng": -45.9303
    },
    {
        "cidade": "Alto Piquiri",
        "uf": "PR",
        "lat": -24.0224,
        "lng": -53.44
    },
    {
        "cidade": "Alto Rio Doce",
        "uf": "MG",
        "lat": -21.0281,
        "lng": -43.4067
    },
    {
        "cidade": "Alto Rio Novo",
        "uf": "ES",
        "lat": -19.0618,
        "lng": -41.0209
    },
    {
        "cidade": "Alto Santo",
        "uf": "CE",
        "lat": -5.50894,
        "lng": -38.2743
    },
    {
        "cidade": "Alto Taquari",
        "uf": "MT",
        "lat": -17.8241,
        "lng": -53.2792
    },
    {
        "cidade": "Altônia",
        "uf": "PR",
        "lat": -23.8759,
        "lng": -53.8958
    },
    {
        "cidade": "Altos",
        "uf": "PI",
        "lat": -5.03888,
        "lng": -42.4612
    },
    {
        "cidade": "Alumínio",
        "uf": "SP",
        "lat": -23.5306,
        "lng": -47.2546
    },
    {
        "cidade": "Alvarães",
        "uf": "AM",
        "lat": -3.22727,
        "lng": -64.8007
    },
    {
        "cidade": "Alvarenga",
        "uf": "MG",
        "lat": -19.4174,
        "lng": -41.7317
    },
    {
        "cidade": "Álvares Florence",
        "uf": "SP",
        "lat": -20.3203,
        "lng": -49.9141
    },
    {
        "cidade": "Álvares Machado",
        "uf": "SP",
        "lat": -22.0764,
        "lng": -51.4722
    },
    {
        "cidade": "Álvaro de Carvalho",
        "uf": "SP",
        "lat": -22.0841,
        "lng": -49.719
    },
    {
        "cidade": "Alvinlândia",
        "uf": "SP",
        "lat": -22.4435,
        "lng": -49.7623
    },
    {
        "cidade": "Alvinópolis",
        "uf": "MG",
        "lat": -20.1098,
        "lng": -43.0535
    },
    {
        "cidade": "Alvorada",
        "uf": "TO",
        "lat": -12.4785,
        "lng": -49.1249
    },
    {
        "cidade": "Alvorada",
        "uf": "RS",
        "lat": -29.9914,
        "lng": -51.0809
    },
    {
        "cidade": "Alvorada D'Oeste",
        "uf": "RO",
        "lat": -11.3463,
        "lng": -62.2847
    },
    {
        "cidade": "Alvorada de Minas",
        "uf": "MG",
        "lat": -18.7334,
        "lng": -43.3638
    },
    {
        "cidade": "Alvorada do Gurguéia",
        "uf": "PI",
        "lat": -8.42418,
        "lng": -43.777
    },
    {
        "cidade": "Alvorada do Norte",
        "uf": "GO",
        "lat": -14.4797,
        "lng": -46.491
    },
    {
        "cidade": "Alvorada do Sul",
        "uf": "PR",
        "lat": -22.7813,
        "lng": -51.2297
    },
    {
        "cidade": "Amajari",
        "uf": "RR",
        "lat": 3.64571,
        "lng": -61.3692
    },
    {
        "cidade": "Amambai",
        "uf": "MS",
        "lat": -23.1058,
        "lng": -55.2253
    },
    {
        "cidade": "Amapá",
        "uf": "AP",
        "lat": 2.05267,
        "lng": -50.7957
    },
    {
        "cidade": "Amapá do Maranhão",
        "uf": "MA",
        "lat": -1.67524,
        "lng": -46.0024
    },
    {
        "cidade": "Amaporã",
        "uf": "PR",
        "lat": -23.0943,
        "lng": -52.7866
    },
    {
        "cidade": "Amaraji",
        "uf": "PE",
        "lat": -8.37691,
        "lng": -35.4501
    },
    {
        "cidade": "Amaral Ferrador",
        "uf": "RS",
        "lat": -30.8756,
        "lng": -52.2509
    },
    {
        "cidade": "Amaralina",
        "uf": "GO",
        "lat": -13.9236,
        "lng": -49.2962
    },
    {
        "cidade": "Amarante",
        "uf": "PI",
        "lat": -6.24304,
        "lng": -42.8433
    },
    {
        "cidade": "Amarante do Maranhão",
        "uf": "MA",
        "lat": -5.56913,
        "lng": -46.7473
    },
    {
        "cidade": "Amargosa",
        "uf": "BA",
        "lat": -13.0215,
        "lng": -39.602
    },
    {
        "cidade": "Amaturá",
        "uf": "AM",
        "lat": -3.37455,
        "lng": -68.2005
    },
    {
        "cidade": "Amélia Rodrigues",
        "uf": "BA",
        "lat": -12.3914,
        "lng": -38.7563
    },
    {
        "cidade": "América Dourada",
        "uf": "BA",
        "lat": -11.4429,
        "lng": -41.439
    },
    {
        "cidade": "Americana",
        "uf": "SP",
        "lat": -22.7374,
        "lng": -47.3331
    },
    {
        "cidade": "Americano do Brasil",
        "uf": "GO",
        "lat": -16.2514,
        "lng": -49.9831
    },
    {
        "cidade": "Américo Brasiliense",
        "uf": "SP",
        "lat": -21.7288,
        "lng": -48.1147
    },
    {
        "cidade": "Américo de Campos",
        "uf": "SP",
        "lat": -20.2985,
        "lng": -49.7359
    },
    {
        "cidade": "Ametista do Sul",
        "uf": "RS",
        "lat": -27.3607,
        "lng": -53.183
    },
    {
        "cidade": "Amontada",
        "uf": "CE",
        "lat": -3.36017,
        "lng": -39.8288
    },
    {
        "cidade": "Amorinópolis",
        "uf": "GO",
        "lat": -16.6151,
        "lng": -51.0919
    },
    {
        "cidade": "Amparo",
        "uf": "PB",
        "lat": -7.55502,
        "lng": -37.0628
    },
    {
        "cidade": "Amparo",
        "uf": "SP",
        "lat": -22.7088,
        "lng": -46.772
    },
    {
        "cidade": "Amparo de São Francisco",
        "uf": "SE",
        "lat": -10.1348,
        "lng": -36.935
    },
    {
        "cidade": "Amparo do Serra",
        "uf": "MG",
        "lat": -20.5051,
        "lng": -42.8009
    },
    {
        "cidade": "Ampére",
        "uf": "PR",
        "lat": -25.9168,
        "lng": -53.4686
    },
    {
        "cidade": "Anadia",
        "uf": "AL",
        "lat": -9.68489,
        "lng": -36.3078
    },
    {
        "cidade": "Anagé",
        "uf": "BA",
        "lat": -14.6151,
        "lng": -41.1356
    },
    {
        "cidade": "Anahy",
        "uf": "PR",
        "lat": -24.6449,
        "lng": -53.1332
    },
    {
        "cidade": "Anajás",
        "uf": "PA",
        "lat": -0.996811,
        "lng": -49.9354
    },
    {
        "cidade": "Anajatuba",
        "uf": "MA",
        "lat": -3.26269,
        "lng": -44.6126
    },
    {
        "cidade": "Analândia",
        "uf": "SP",
        "lat": -22.1289,
        "lng": -47.6619
    },
    {
        "cidade": "Anamã",
        "uf": "AM",
        "lat": -3.56697,
        "lng": -61.3963
    },
    {
        "cidade": "Ananás",
        "uf": "TO",
        "lat": -6.36437,
        "lng": -48.0735
    },
    {
        "cidade": "Ananindeua",
        "uf": "PA",
        "lat": -1.36391,
        "lng": -48.3743
    },
    {
        "cidade": "Anápolis",
        "uf": "GO",
        "lat": -16.3281,
        "lng": -48.953
    },
    {
        "cidade": "Anapu",
        "uf": "PA",
        "lat": -3.46985,
        "lng": -51.2003
    },
    {
        "cidade": "Anapurus",
        "uf": "MA",
        "lat": -3.67577,
        "lng": -43.1014
    },
    {
        "cidade": "Anastácio",
        "uf": "MS",
        "lat": -20.4823,
        "lng": -55.8104
    },
    {
        "cidade": "Anaurilândia",
        "uf": "MS",
        "lat": -22.1852,
        "lng": -52.7191
    },
    {
        "cidade": "Anchieta",
        "uf": "SC",
        "lat": -26.5382,
        "lng": -53.3319
    },
    {
        "cidade": "Anchieta",
        "uf": "ES",
        "lat": -20.7955,
        "lng": -40.6425
    },
    {
        "cidade": "Andaraí",
        "uf": "BA",
        "lat": -12.8049,
        "lng": -41.3297
    },
    {
        "cidade": "Andirá",
        "uf": "PR",
        "lat": -23.0533,
        "lng": -50.2304
    },
    {
        "cidade": "Andorinha",
        "uf": "BA",
        "lat": -10.3482,
        "lng": -39.8391
    },
    {
        "cidade": "Andradas",
        "uf": "MG",
        "lat": -22.0695,
        "lng": -46.5724
    },
    {
        "cidade": "Andradina",
        "uf": "SP",
        "lat": -20.8948,
        "lng": -51.3786
    },
    {
        "cidade": "André da Rocha",
        "uf": "RS",
        "lat": -28.6283,
        "lng": -51.5797
    },
    {
        "cidade": "Andrelândia",
        "uf": "MG",
        "lat": -21.7411,
        "lng": -44.3117
    },
    {
        "cidade": "Angatuba",
        "uf": "SP",
        "lat": -23.4917,
        "lng": -48.4139
    },
    {
        "cidade": "Angelândia",
        "uf": "MG",
        "lat": -17.7279,
        "lng": -42.2641
    },
    {
        "cidade": "Angélica",
        "uf": "MS",
        "lat": -22.1527,
        "lng": -53.7708
    },
    {
        "cidade": "Angelim",
        "uf": "PE",
        "lat": -8.88429,
        "lng": -36.2902
    },
    {
        "cidade": "Angelina",
        "uf": "SC",
        "lat": -27.5704,
        "lng": -48.9879
    },
    {
        "cidade": "Angical",
        "uf": "BA",
        "lat": -12.0063,
        "lng": -44.7003
    },
    {
        "cidade": "Angical do Piauí",
        "uf": "PI",
        "lat": -6.08786,
        "lng": -42.74
    },
    {
        "cidade": "Angico",
        "uf": "TO",
        "lat": -6.39179,
        "lng": -47.8611
    },
    {
        "cidade": "Angicos",
        "uf": "RN",
        "lat": -5.65792,
        "lng": -36.6094
    },
    {
        "cidade": "Angra dos Reis",
        "uf": "RJ",
        "lat": -23.0011,
        "lng": -44.3196
    },
    {
        "cidade": "Anguera",
        "uf": "BA",
        "lat": -12.1462,
        "lng": -39.2462
    },
    {
        "cidade": "Ângulo",
        "uf": "PR",
        "lat": -23.1946,
        "lng": -51.9154
    },
    {
        "cidade": "Anhanguera",
        "uf": "GO",
        "lat": -18.3339,
        "lng": -48.2204
    },
    {
        "cidade": "Anhembi",
        "uf": "SP",
        "lat": -22.793,
        "lng": -48.1336
    },
    {
        "cidade": "Anhumas",
        "uf": "SP",
        "lat": -22.2934,
        "lng": -51.3895
    },
    {
        "cidade": "Anicuns",
        "uf": "GO",
        "lat": -16.4642,
        "lng": -49.9617
    },
    {
        "cidade": "Anísio de Abreu",
        "uf": "PI",
        "lat": -9.18564,
        "lng": -43.0494
    },
    {
        "cidade": "Anita Garibaldi",
        "uf": "SC",
        "lat": -27.6897,
        "lng": -51.1271
    },
    {
        "cidade": "Anitápolis",
        "uf": "SC",
        "lat": -27.9012,
        "lng": -49.1316
    },
    {
        "cidade": "Anori",
        "uf": "AM",
        "lat": -3.74603,
        "lng": -61.6575
    },
    {
        "cidade": "Anta Gorda",
        "uf": "RS",
        "lat": -28.9698,
        "lng": -52.0102
    },
    {
        "cidade": "Antas",
        "uf": "BA",
        "lat": -10.3856,
        "lng": -38.3401
    },
    {
        "cidade": "Antonina",
        "uf": "PR",
        "lat": -25.4386,
        "lng": -48.7191
    },
    {
        "cidade": "Antonina do Norte",
        "uf": "CE",
        "lat": -6.76919,
        "lng": -39.987
    },
    {
        "cidade": "Antônio Almeida",
        "uf": "PI",
        "lat": -7.21276,
        "lng": -44.1889
    },
    {
        "cidade": "Antônio Cardoso",
        "uf": "BA",
        "lat": -12.4335,
        "lng": -39.1176
    },
    {
        "cidade": "Antônio Carlos",
        "uf": "SC",
        "lat": -27.5191,
        "lng": -48.766
    },
    {
        "cidade": "Antônio Carlos",
        "uf": "MG",
        "lat": -21.321,
        "lng": -43.7451
    },
    {
        "cidade": "Antônio Dias",
        "uf": "MG",
        "lat": -19.6491,
        "lng": -42.8732
    },
    {
        "cidade": "Antônio Gonçalves",
        "uf": "BA",
        "lat": -10.5767,
        "lng": -40.2785
    },
    {
        "cidade": "Antônio João",
        "uf": "MS",
        "lat": -22.1927,
        "lng": -55.9517
    },
    {
        "cidade": "Antônio Martins",
        "uf": "RN",
        "lat": -6.21367,
        "lng": -37.8834
    },
    {
        "cidade": "Antônio Olinto",
        "uf": "PR",
        "lat": -25.9804,
        "lng": -50.1972
    },
    {
        "cidade": "Antônio Prado",
        "uf": "RS",
        "lat": -28.8565,
        "lng": -51.2883
    },
    {
        "cidade": "Antônio Prado de Minas",
        "uf": "MG",
        "lat": -21.0192,
        "lng": -42.1109
    },
    {
        "cidade": "Aparecida",
        "uf": "PB",
        "lat": -6.78466,
        "lng": -38.0803
    },
    {
        "cidade": "Aparecida",
        "uf": "SP",
        "lat": -22.8495,
        "lng": -45.2325
    },
    {
        "cidade": "Aparecida d'Oeste",
        "uf": "SP",
        "lat": -20.4487,
        "lng": -50.8835
    },
    {
        "cidade": "Aparecida de Goiânia",
        "uf": "GO",
        "lat": -16.8198,
        "lng": -49.2469
    },
    {
        "cidade": "Aparecida do Rio Doce",
        "uf": "GO",
        "lat": -18.2941,
        "lng": -51.1516
    },
    {
        "cidade": "Aparecida do Rio Negro",
        "uf": "TO",
        "lat": -9.94139,
        "lng": -47.9638
    },
    {
        "cidade": "Aparecida do Taboado",
        "uf": "MS",
        "lat": -20.0873,
        "lng": -51.0961
    },
    {
        "cidade": "Aperibé",
        "uf": "RJ",
        "lat": -21.6252,
        "lng": -42.1017
    },
    {
        "cidade": "Apiacá",
        "uf": "ES",
        "lat": -21.1523,
        "lng": -41.5693
    },
    {
        "cidade": "Apiacás",
        "uf": "MT",
        "lat": -9.53981,
        "lng": -57.4587
    },
    {
        "cidade": "Apiaí",
        "uf": "SP",
        "lat": -24.5108,
        "lng": -48.8443
    },
    {
        "cidade": "Apicum-Açu",
        "uf": "MA",
        "lat": -1.45862,
        "lng": -45.0864
    },
    {
        "cidade": "Apiúna",
        "uf": "SC",
        "lat": -27.0375,
        "lng": -49.3885
    },
    {
        "cidade": "Apodi",
        "uf": "RN",
        "lat": -5.65349,
        "lng": -37.7946
    },
    {
        "cidade": "Aporá",
        "uf": "BA",
        "lat": -11.6577,
        "lng": -38.0814
    },
    {
        "cidade": "Aporé",
        "uf": "GO",
        "lat": -18.9607,
        "lng": -51.9232
    },
    {
        "cidade": "Apuarema",
        "uf": "BA",
        "lat": -13.8542,
        "lng": -39.7501
    },
    {
        "cidade": "Apucarana",
        "uf": "PR",
        "lat": -23.55,
        "lng": -51.4635
    },
    {
        "cidade": "Apuí",
        "uf": "AM",
        "lat": -7.19409,
        "lng": -59.896
    },
    {
        "cidade": "Apuiarés",
        "uf": "CE",
        "lat": -3.94506,
        "lng": -39.4359
    },
    {
        "cidade": "Aquidabã",
        "uf": "SE",
        "lat": -10.278,
        "lng": -37.0148
    },
    {
        "cidade": "Aquidauana",
        "uf": "MS",
        "lat": -20.4666,
        "lng": -55.7868
    },
    {
        "cidade": "Aquiraz",
        "uf": "CE",
        "lat": -3.89929,
        "lng": -38.3896
    },
    {
        "cidade": "Arabutã",
        "uf": "SC",
        "lat": -27.1587,
        "lng": -52.1423
    },
    {
        "cidade": "Araçagi",
        "uf": "PB",
        "lat": -6.84374,
        "lng": -35.3737
    },
    {
        "cidade": "Araçaí",
        "uf": "MG",
        "lat": -19.1955,
        "lng": -44.2493
    },
    {
        "cidade": "Aracaju",
        "uf": "SE",
        "lat": -10.9091,
        "lng": -37.0677
    },
    {
        "cidade": "Araçariguama",
        "uf": "SP",
        "lat": -23.4366,
        "lng": -47.0608
    },
    {
        "cidade": "Araças",
        "uf": "BA",
        "lat": -12.22,
        "lng": -38.2027
    },
    {
        "cidade": "Aracati",
        "uf": "CE",
        "lat": -4.55826,
        "lng": -37.7679
    },
    {
        "cidade": "Aracatu",
        "uf": "BA",
        "lat": -14.428,
        "lng": -41.4648
    },
    {
        "cidade": "Araçatuba",
        "uf": "SP",
        "lat": -21.2076,
        "lng": -50.4401
    },
    {
        "cidade": "Araci",
        "uf": "BA",
        "lat": -11.3253,
        "lng": -38.9584
    },
    {
        "cidade": "Aracitaba",
        "uf": "MG",
        "lat": -21.3446,
        "lng": -43.3736
    },
    {
        "cidade": "Araçoiaba",
        "uf": "PE",
        "lat": -7.78391,
        "lng": -35.0809
    },
    {
        "cidade": "Aracoiaba",
        "uf": "CE",
        "lat": -4.36872,
        "lng": -38.8125
    },
    {
        "cidade": "Araçoiaba da Serra",
        "uf": "SP",
        "lat": -23.5029,
        "lng": -47.6166
    },
    {
        "cidade": "Aracruz",
        "uf": "ES",
        "lat": -19.82,
        "lng": -40.2764
    },
    {
        "cidade": "Araçu",
        "uf": "GO",
        "lat": -16.3563,
        "lng": -49.6804
    },
    {
        "cidade": "Araçuaí",
        "uf": "MG",
        "lat": -16.8523,
        "lng": -42.0637
    },
    {
        "cidade": "Aragarças",
        "uf": "GO",
        "lat": -15.8955,
        "lng": -52.2372
    },
    {
        "cidade": "Aragoiânia",
        "uf": "GO",
        "lat": -16.9087,
        "lng": -49.4476
    },
    {
        "cidade": "Aragominas",
        "uf": "TO",
        "lat": -7.16005,
        "lng": -48.5291
    },
    {
        "cidade": "Araguacema",
        "uf": "TO",
        "lat": -8.80755,
        "lng": -49.5569
    },
    {
        "cidade": "Araguaçu",
        "uf": "TO",
        "lat": -12.9289,
        "lng": -49.8231
    },
    {
        "cidade": "Araguaiana",
        "uf": "MT",
        "lat": -15.7291,
        "lng": -51.8341
    },
    {
        "cidade": "Araguaína",
        "uf": "TO",
        "lat": -7.19238,
        "lng": -48.2044
    },
    {
        "cidade": "Araguainha",
        "uf": "MT",
        "lat": -16.857,
        "lng": -53.0318
    },
    {
        "cidade": "Araguanã",
        "uf": "TO",
        "lat": -6.58225,
        "lng": -48.6395
    },
    {
        "cidade": "Araguanã",
        "uf": "MA",
        "lat": -2.94644,
        "lng": -45.6589
    },
    {
        "cidade": "Araguapaz",
        "uf": "GO",
        "lat": -15.0909,
        "lng": -50.6315
    },
    {
        "cidade": "Araguari",
        "uf": "MG",
        "lat": -18.6456,
        "lng": -48.1934
    },
    {
        "cidade": "Araguatins",
        "uf": "TO",
        "lat": -5.64659,
        "lng": -48.1232
    },
    {
        "cidade": "Araioses",
        "uf": "MA",
        "lat": -2.89091,
        "lng": -41.905
    },
    {
        "cidade": "Aral Moreira",
        "uf": "MS",
        "lat": -22.9385,
        "lng": -55.6334
    },
    {
        "cidade": "Aramari",
        "uf": "BA",
        "lat": -12.0884,
        "lng": -38.4969
    },
    {
        "cidade": "Arambaré",
        "uf": "RS",
        "lat": -30.9092,
        "lng": -51.5046
    },
    {
        "cidade": "Arame",
        "uf": "MA",
        "lat": -4.88347,
        "lng": -46.0032
    },
    {
        "cidade": "Aramina",
        "uf": "SP",
        "lat": -20.0882,
        "lng": -47.7873
    },
    {
        "cidade": "Arandu",
        "uf": "SP",
        "lat": -23.1386,
        "lng": -49.0487
    },
    {
        "cidade": "Arantina",
        "uf": "MG",
        "lat": -21.9102,
        "lng": -44.2555
    },
    {
        "cidade": "Arapeí",
        "uf": "SP",
        "lat": -22.6717,
        "lng": -44.4441
    },
    {
        "cidade": "Arapiraca",
        "uf": "AL",
        "lat": -9.75487,
        "lng": -36.6615
    },
    {
        "cidade": "Arapoema",
        "uf": "TO",
        "lat": -7.65463,
        "lng": -49.0637
    },
    {
        "cidade": "Araponga",
        "uf": "MG",
        "lat": -20.6686,
        "lng": -42.5178
    },
    {
        "cidade": "Arapongas",
        "uf": "PR",
        "lat": -23.4153,
        "lng": -51.4259
    },
    {
        "cidade": "Araporã",
        "uf": "MG",
        "lat": -18.4357,
        "lng": -49.1847
    },
    {
        "cidade": "Arapoti",
        "uf": "PR",
        "lat": -24.1548,
        "lng": -49.8285
    },
    {
        "cidade": "Arapuã",
        "uf": "PR",
        "lat": -24.3132,
        "lng": -51.7856
    },
    {
        "cidade": "Arapuá",
        "uf": "MG",
        "lat": -19.0268,
        "lng": -46.1484
    },
    {
        "cidade": "Araputanga",
        "uf": "MT",
        "lat": -15.4641,
        "lng": -58.3425
    },
    {
        "cidade": "Araquari",
        "uf": "SC",
        "lat": -26.3754,
        "lng": -48.7188
    },
    {
        "cidade": "Arara",
        "uf": "PB",
        "lat": -6.82813,
        "lng": -35.7552
    },
    {
        "cidade": "Araranguá",
        "uf": "SC",
        "lat": -28.9356,
        "lng": -49.4918
    },
    {
        "cidade": "Araraquara",
        "uf": "SP",
        "lat": -21.7845,
        "lng": -48.178
    },
    {
        "cidade": "Araras",
        "uf": "SP",
        "lat": -22.3572,
        "lng": -47.3842
    },
    {
        "cidade": "Ararendá",
        "uf": "CE",
        "lat": -4.74567,
        "lng": -40.831
    },
    {
        "cidade": "Arari",
        "uf": "MA",
        "lat": -3.45214,
        "lng": -44.7665
    },
    {
        "cidade": "Araricá",
        "uf": "RS",
        "lat": -29.6168,
        "lng": -50.9291
    },
    {
        "cidade": "Araripe",
        "uf": "CE",
        "lat": -7.21319,
        "lng": -40.1359
    },
    {
        "cidade": "Araripina",
        "uf": "PE",
        "lat": -7.57073,
        "lng": -40.494
    },
    {
        "cidade": "Araruama",
        "uf": "RJ",
        "lat": -22.8697,
        "lng": -42.3326
    },
    {
        "cidade": "Araruna",
        "uf": "PR",
        "lat": -23.9315,
        "lng": -52.5021
    },
    {
        "cidade": "Araruna",
        "uf": "PB",
        "lat": -6.54848,
        "lng": -35.7498
    },
    {
        "cidade": "Arataca",
        "uf": "BA",
        "lat": -15.2651,
        "lng": -39.419
    },
    {
        "cidade": "Aratiba",
        "uf": "RS",
        "lat": -27.3978,
        "lng": -52.2975
    },
    {
        "cidade": "Aratuba",
        "uf": "CE",
        "lat": -4.41229,
        "lng": -39.0471
    },
    {
        "cidade": "Aratuípe",
        "uf": "BA",
        "lat": -13.0716,
        "lng": -39.0038
    },
    {
        "cidade": "Arauá",
        "uf": "SE",
        "lat": -11.2614,
        "lng": -37.6201
    },
    {
        "cidade": "Araucária",
        "uf": "PR",
        "lat": -25.5859,
        "lng": -49.4047
    },
    {
        "cidade": "Araújos",
        "uf": "MG",
        "lat": -19.9405,
        "lng": -45.1671
    },
    {
        "cidade": "Araxá",
        "uf": "MG",
        "lat": -19.5902,
        "lng": -46.9438
    },
    {
        "cidade": "Arceburgo",
        "uf": "MG",
        "lat": -21.359,
        "lng": -46.9401
    },
    {
        "cidade": "Arco-Íris",
        "uf": "SP",
        "lat": -21.7728,
        "lng": -50.466
    },
    {
        "cidade": "Arcos",
        "uf": "MG",
        "lat": -20.2863,
        "lng": -45.5373
    },
    {
        "cidade": "Arcoverde",
        "uf": "PE",
        "lat": -8.41519,
        "lng": -37.0577
    },
    {
        "cidade": "Areado",
        "uf": "MG",
        "lat": -21.3572,
        "lng": -46.1421
    },
    {
        "cidade": "Areal",
        "uf": "RJ",
        "lat": -22.2283,
        "lng": -43.1118
    },
    {
        "cidade": "Arealva",
        "uf": "SP",
        "lat": -22.031,
        "lng": -48.9135
    },
    {
        "cidade": "Areia",
        "uf": "PB",
        "lat": -6.96396,
        "lng": -35.6977
    },
    {
        "cidade": "Areia Branca",
        "uf": "RN",
        "lat": -4.95254,
        "lng": -37.1252
    },
    {
        "cidade": "Areia Branca",
        "uf": "SE",
        "lat": -10.758,
        "lng": -37.3251
    },
    {
        "cidade": "Areia de Baraúnas",
        "uf": "PB",
        "lat": -7.11702,
        "lng": -36.9404
    },
    {
        "cidade": "Areial",
        "uf": "PB",
        "lat": -7.04789,
        "lng": -35.9313
    },
    {
        "cidade": "Areias",
        "uf": "SP",
        "lat": -22.5786,
        "lng": -44.6992
    },
    {
        "cidade": "Areiópolis",
        "uf": "SP",
        "lat": -22.6672,
        "lng": -48.6681
    },
    {
        "cidade": "Arenápolis",
        "uf": "MT",
        "lat": -14.4472,
        "lng": -56.8437
    },
    {
        "cidade": "Arenópolis",
        "uf": "GO",
        "lat": -16.3837,
        "lng": -51.5563
    },
    {
        "cidade": "Arês",
        "uf": "RN",
        "lat": -6.18831,
        "lng": -35.1608
    },
    {
        "cidade": "Argirita",
        "uf": "MG",
        "lat": -21.6083,
        "lng": -42.8292
    },
    {
        "cidade": "Aricanduva",
        "uf": "MG",
        "lat": -17.8666,
        "lng": -42.5533
    },
    {
        "cidade": "Arinos",
        "uf": "MG",
        "lat": -15.9187,
        "lng": -46.1043
    },
    {
        "cidade": "Aripuanã",
        "uf": "MT",
        "lat": -10.1723,
        "lng": -59.4568
    },
    {
        "cidade": "Ariquemes",
        "uf": "RO",
        "lat": -9.90571,
        "lng": -63.0325
    },
    {
        "cidade": "Ariranha",
        "uf": "SP",
        "lat": -21.1872,
        "lng": -48.7904
    },
    {
        "cidade": "Ariranha do Ivaí",
        "uf": "PR",
        "lat": -24.3857,
        "lng": -51.5839
    },
    {
        "cidade": "Armação dos Búzios",
        "uf": "RJ",
        "lat": -22.7528,
        "lng": -41.8846
    },
    {
        "cidade": "Armazém",
        "uf": "SC",
        "lat": -28.2448,
        "lng": -49.0215
    },
    {
        "cidade": "Arneiroz",
        "uf": "CE",
        "lat": -6.3165,
        "lng": -40.1653
    },
    {
        "cidade": "Aroazes",
        "uf": "PI",
        "lat": -6.11022,
        "lng": -41.7822
    },
    {
        "cidade": "Aroeiras",
        "uf": "PB",
        "lat": -7.54473,
        "lng": -35.7066
    },
    {
        "cidade": "Aroeiras do Itaim",
        "uf": "PI",
        "lat": -7.24502,
        "lng": -41.5325
    },
    {
        "cidade": "Arraial",
        "uf": "PI",
        "lat": -6.65075,
        "lng": -42.5418
    },
    {
        "cidade": "Arraial do Cabo",
        "uf": "RJ",
        "lat": -22.9774,
        "lng": -42.0267
    },
    {
        "cidade": "Arraias",
        "uf": "TO",
        "lat": -12.9287,
        "lng": -46.9359
    },
    {
        "cidade": "Arroio do Meio",
        "uf": "RS",
        "lat": -29.4014,
        "lng": -51.9557
    },
    {
        "cidade": "Arroio do Padre",
        "uf": "RS",
        "lat": -31.4389,
        "lng": -52.4246
    },
    {
        "cidade": "Arroio do Sal",
        "uf": "RS",
        "lat": -29.5439,
        "lng": -49.8895
    },
    {
        "cidade": "Arroio do Tigre",
        "uf": "RS",
        "lat": -29.3348,
        "lng": -53.0966
    },
    {
        "cidade": "Arroio dos Ratos",
        "uf": "RS",
        "lat": -30.0875,
        "lng": -51.7275
    },
    {
        "cidade": "Arroio Grande",
        "uf": "RS",
        "lat": -32.2327,
        "lng": -53.0862
    },
    {
        "cidade": "Arroio Trinta",
        "uf": "SC",
        "lat": -26.9257,
        "lng": -51.3407
    },
    {
        "cidade": "Artur Nogueira",
        "uf": "SP",
        "lat": -22.5727,
        "lng": -47.1727
    },
    {
        "cidade": "Aruanã",
        "uf": "GO",
        "lat": -14.9166,
        "lng": -51.075
    },
    {
        "cidade": "Arujá",
        "uf": "SP",
        "lat": -23.3965,
        "lng": -46.32
    },
    {
        "cidade": "Arvoredo",
        "uf": "SC",
        "lat": -27.0748,
        "lng": -52.4543
    },
    {
        "cidade": "Arvorezinha",
        "uf": "RS",
        "lat": -28.8737,
        "lng": -52.1781
    },
    {
        "cidade": "Ascurra",
        "uf": "SC",
        "lat": -26.9548,
        "lng": -49.3783
    },
    {
        "cidade": "Aspásia",
        "uf": "SP",
        "lat": -20.16,
        "lng": -50.728
    },
    {
        "cidade": "Assaí",
        "uf": "PR",
        "lat": -23.3697,
        "lng": -50.8459
    },
    {
        "cidade": "Assaré",
        "uf": "CE",
        "lat": -6.8669,
        "lng": -39.8689
    },
    {
        "cidade": "Assis",
        "uf": "SP",
        "lat": -22.66,
        "lng": -50.4183
    },
    {
        "cidade": "Assis Brasil",
        "uf": "AC",
        "lat": -10.9298,
        "lng": -69.5738
    },
    {
        "cidade": "Assis Chateaubriand",
        "uf": "PR",
        "lat": -24.4168,
        "lng": -53.5213
    },
    {
        "cidade": "Assunção",
        "uf": "PB",
        "lat": -7.07231,
        "lng": -36.725
    },
    {
        "cidade": "Assunção do Piauí",
        "uf": "PI",
        "lat": -5.865,
        "lng": -41.0389
    },
    {
        "cidade": "Astolfo Dutra",
        "uf": "MG",
        "lat": -21.3184,
        "lng": -42.8572
    },
    {
        "cidade": "Astorga",
        "uf": "PR",
        "lat": -23.2318,
        "lng": -51.6668
    },
    {
        "cidade": "Atalaia",
        "uf": "PR",
        "lat": -23.1517,
        "lng": -52.0551
    },
    {
        "cidade": "Atalaia",
        "uf": "AL",
        "lat": -9.5119,
        "lng": -36.0086
    },
    {
        "cidade": "Atalaia do Norte",
        "uf": "AM",
        "lat": -4.37055,
        "lng": -70.1967
    },
    {
        "cidade": "Atalanta",
        "uf": "SC",
        "lat": -27.4219,
        "lng": -49.7789
    },
    {
        "cidade": "Ataléia",
        "uf": "MG",
        "lat": -18.0438,
        "lng": -41.1149
    },
    {
        "cidade": "Atibaia",
        "uf": "SP",
        "lat": -23.1171,
        "lng": -46.5563
    },
    {
        "cidade": "Atilio Vivacqua",
        "uf": "ES",
        "lat": -20.913,
        "lng": -41.1986
    },
    {
        "cidade": "Augustinópolis",
        "uf": "TO",
        "lat": -5.46863,
        "lng": -47.8863
    },
    {
        "cidade": "Augusto Corrêa",
        "uf": "PA",
        "lat": -1.05109,
        "lng": -46.6147
    },
    {
        "cidade": "Augusto de Lima",
        "uf": "MG",
        "lat": -18.0997,
        "lng": -44.2655
    },
    {
        "cidade": "Augusto Pestana",
        "uf": "RS",
        "lat": -28.5172,
        "lng": -53.9883
    },
    {
        "cidade": "Augusto Severo (Campo Grande)",
        "uf": "RN",
        "lat": -5.86206,
        "lng": -37.3135
    },
    {
        "cidade": "Áurea",
        "uf": "RS",
        "lat": -27.6936,
        "lng": -52.0505
    },
    {
        "cidade": "Aurelino Leal",
        "uf": "BA",
        "lat": -14.321,
        "lng": -39.329
    },
    {
        "cidade": "Auriflama",
        "uf": "SP",
        "lat": -20.6836,
        "lng": -50.5572
    },
    {
        "cidade": "Aurilândia",
        "uf": "GO",
        "lat": -16.6773,
        "lng": -50.4641
    },
    {
        "cidade": "Aurora",
        "uf": "CE",
        "lat": -6.93349,
        "lng": -38.9742
    },
    {
        "cidade": "Aurora",
        "uf": "SC",
        "lat": -27.3098,
        "lng": -49.6295
    },
    {
        "cidade": "Aurora do Pará",
        "uf": "PA",
        "lat": -2.14898,
        "lng": -47.5677
    },
    {
        "cidade": "Aurora do Tocantins",
        "uf": "TO",
        "lat": -12.7105,
        "lng": -46.4076
    },
    {
        "cidade": "Autazes",
        "uf": "AM",
        "lat": -3.58574,
        "lng": -59.1256
    },
    {
        "cidade": "Avaí",
        "uf": "SP",
        "lat": -22.1514,
        "lng": -49.3356
    },
    {
        "cidade": "Avanhandava",
        "uf": "SP",
        "lat": -21.4584,
        "lng": -49.9509
    },
    {
        "cidade": "Avaré",
        "uf": "SP",
        "lat": -23.1067,
        "lng": -48.9251
    },
    {
        "cidade": "Aveiro",
        "uf": "PA",
        "lat": -3.60841,
        "lng": -55.3199
    },
    {
        "cidade": "Avelino Lopes",
        "uf": "PI",
        "lat": -10.1345,
        "lng": -43.9563
    },
    {
        "cidade": "Avelinópolis",
        "uf": "GO",
        "lat": -16.4672,
        "lng": -49.7579
    },
    {
        "cidade": "Axixá",
        "uf": "MA",
        "lat": -2.83939,
        "lng": -44.062
    },
    {
        "cidade": "Axixá do Tocantins",
        "uf": "TO",
        "lat": -5.61275,
        "lng": -47.7701
    },
    {
        "cidade": "Babaçulândia",
        "uf": "TO",
        "lat": -7.20923,
        "lng": -47.7613
    },
    {
        "cidade": "Bacabal",
        "uf": "MA",
        "lat": -4.22447,
        "lng": -44.7832
    },
    {
        "cidade": "Bacabeira",
        "uf": "MA",
        "lat": -2.96452,
        "lng": -44.3164
    },
    {
        "cidade": "Bacuri",
        "uf": "MA",
        "lat": -1.6965,
        "lng": -45.1328
    },
    {
        "cidade": "Bacurituba",
        "uf": "MA",
        "lat": -2.71,
        "lng": -44.7329
    },
    {
        "cidade": "Bady Bassitt",
        "uf": "SP",
        "lat": -20.9197,
        "lng": -49.4385
    },
    {
        "cidade": "Baependi",
        "uf": "MG",
        "lat": -21.957,
        "lng": -44.8874
    },
    {
        "cidade": "Bagé",
        "uf": "RS",
        "lat": -31.3297,
        "lng": -54.0999
    },
    {
        "cidade": "Bagre",
        "uf": "PA",
        "lat": -1.90057,
        "lng": -50.1987
    },
    {
        "cidade": "Baía da Traição",
        "uf": "PB",
        "lat": -6.69209,
        "lng": -34.9381
    },
    {
        "cidade": "Baía Formosa",
        "uf": "RN",
        "lat": -6.37161,
        "lng": -35.0033
    },
    {
        "cidade": "Baianópolis",
        "uf": "BA",
        "lat": -12.3016,
        "lng": -44.5388
    },
    {
        "cidade": "Baião",
        "uf": "PA",
        "lat": -2.79021,
        "lng": -49.6694
    },
    {
        "cidade": "Baixa Grande",
        "uf": "BA",
        "lat": -11.9519,
        "lng": -40.169
    },
    {
        "cidade": "Baixa Grande do Ribeiro",
        "uf": "PI",
        "lat": -7.84903,
        "lng": -45.219
    },
    {
        "cidade": "Baixio",
        "uf": "CE",
        "lat": -6.71945,
        "lng": -38.7134
    },
    {
        "cidade": "Baixo Guandu",
        "uf": "ES",
        "lat": -19.5213,
        "lng": -41.0109
    },
    {
        "cidade": "Balbinos",
        "uf": "SP",
        "lat": -21.8963,
        "lng": -49.3619
    },
    {
        "cidade": "Baldim",
        "uf": "MG",
        "lat": -19.2832,
        "lng": -43.9613
    },
    {
        "cidade": "Baliza",
        "uf": "GO",
        "lat": -16.1966,
        "lng": -52.5393
    },
    {
        "cidade": "Balneário Arroio do Silva",
        "uf": "SC",
        "lat": -28.9806,
        "lng": -49.4237
    },
    {
        "cidade": "Balneário Barra do Sul",
        "uf": "SC",
        "lat": -26.4597,
        "lng": -48.6123
    },
    {
        "cidade": "Balneário Camboriú",
        "uf": "SC",
        "lat": -26.9926,
        "lng": -48.6352
    },
    {
        "cidade": "Balneário Gaivota",
        "uf": "SC",
        "lat": -29.1527,
        "lng": -49.5841
    },
    {
        "cidade": "Balneário Piçarras",
        "uf": "SC",
        "lat": -26.7639,
        "lng": -48.6717
    },
    {
        "cidade": "Balneário Pinhal",
        "uf": "RS",
        "lat": -30.2419,
        "lng": -50.2337
    },
    {
        "cidade": "Balneário Rincão",
        "uf": "SC",
        "lat": -28.8314,
        "lng": -49.2352
    },
    {
        "cidade": "Balsa Nova",
        "uf": "PR",
        "lat": -25.5804,
        "lng": -49.6291
    },
    {
        "cidade": "Bálsamo",
        "uf": "SP",
        "lat": -20.7348,
        "lng": -49.5865
    },
    {
        "cidade": "Balsas",
        "uf": "MA",
        "lat": -7.53214,
        "lng": -46.0372
    },
    {
        "cidade": "Bambuí",
        "uf": "MG",
        "lat": -20.0166,
        "lng": -45.9754
    },
    {
        "cidade": "Banabuiú",
        "uf": "CE",
        "lat": -5.30454,
        "lng": -38.9132
    },
    {
        "cidade": "Bananal",
        "uf": "SP",
        "lat": -22.6819,
        "lng": -44.3281
    },
    {
        "cidade": "Bananeiras",
        "uf": "PB",
        "lat": -6.74775,
        "lng": -35.6246
    },
    {
        "cidade": "Bandeira",
        "uf": "MG",
        "lat": -15.8783,
        "lng": -40.5622
    },
    {
        "cidade": "Bandeira do Sul",
        "uf": "MG",
        "lat": -21.7308,
        "lng": -46.3833
    },
    {
        "cidade": "Bandeirante",
        "uf": "SC",
        "lat": -26.7705,
        "lng": -53.6413
    },
    {
        "cidade": "Bandeirantes",
        "uf": "MS",
        "lat": -19.9275,
        "lng": -54.3585
    },
    {
        "cidade": "Bandeirantes",
        "uf": "PR",
        "lat": -23.1078,
        "lng": -50.3704
    },
    {
        "cidade": "Bandeirantes do Tocantins",
        "uf": "TO",
        "lat": -7.75612,
        "lng": -48.5836
    },
    {
        "cidade": "Bannach",
        "uf": "PA",
        "lat": -7.34779,
        "lng": -50.3959
    },
    {
        "cidade": "Banzaê",
        "uf": "BA",
        "lat": -10.5788,
        "lng": -38.6212
    },
    {
        "cidade": "Barão",
        "uf": "RS",
        "lat": -29.3725,
        "lng": -51.4949
    },
    {
        "cidade": "Barão de Antonina",
        "uf": "SP",
        "lat": -23.6284,
        "lng": -49.5634
    },
    {
        "cidade": "Barão de Cocais",
        "uf": "MG",
        "lat": -19.9389,
        "lng": -43.4755
    },
    {
        "cidade": "Barão de Cotegipe",
        "uf": "RS",
        "lat": -27.6208,
        "lng": -52.3798
    },
    {
        "cidade": "Barão de Grajaú",
        "uf": "MA",
        "lat": -6.74463,
        "lng": -43.0261
    },
    {
        "cidade": "Barão de Melgaço",
        "uf": "MT",
        "lat": -16.2067,
        "lng": -55.9623
    },
    {
        "cidade": "Barão de Monte Alto",
        "uf": "MG",
        "lat": -21.2444,
        "lng": -42.2372
    },
    {
        "cidade": "Barão do Triunfo",
        "uf": "RS",
        "lat": -30.3891,
        "lng": -51.7384
    },
    {
        "cidade": "Baraúna",
        "uf": "RN",
        "lat": -5.06977,
        "lng": -37.6129
    },
    {
        "cidade": "Baraúna",
        "uf": "PB",
        "lat": -6.63484,
        "lng": -36.2601
    },
    {
        "cidade": "Barbacena",
        "uf": "MG",
        "lat": -21.2214,
        "lng": -43.7703
    },
    {
        "cidade": "Barbalha",
        "uf": "CE",
        "lat": -7.2982,
        "lng": -39.3021
    },
    {
        "cidade": "Barbosa",
        "uf": "SP",
        "lat": -21.2657,
        "lng": -49.9518
    },
    {
        "cidade": "Barbosa Ferraz",
        "uf": "PR",
        "lat": -24.0334,
        "lng": -52.004
    },
    {
        "cidade": "Barcarena",
        "uf": "PA",
        "lat": -1.51187,
        "lng": -48.6195
    },
    {
        "cidade": "Barcelona",
        "uf": "RN",
        "lat": -5.94284,
        "lng": -35.9247
    },
    {
        "cidade": "Barcelos",
        "uf": "AM",
        "lat": -0.983373,
        "lng": -62.9311
    },
    {
        "cidade": "Bariri",
        "uf": "SP",
        "lat": -22.073,
        "lng": -48.7438
    },
    {
        "cidade": "Barra",
        "uf": "BA",
        "lat": -11.0859,
        "lng": -43.1459
    },
    {
        "cidade": "Barra Bonita",
        "uf": "SC",
        "lat": -26.654,
        "lng": -53.44
    },
    {
        "cidade": "Barra Bonita",
        "uf": "SP",
        "lat": -22.4909,
        "lng": -48.5583
    },
    {
        "cidade": "Barra D'Alcântara",
        "uf": "PI",
        "lat": -6.51645,
        "lng": -42.1146
    },
    {
        "cidade": "Barra da Estiva",
        "uf": "BA",
        "lat": -13.6237,
        "lng": -41.3347
    },
    {
        "cidade": "Barra de Guabiraba",
        "uf": "PE",
        "lat": -8.42075,
        "lng": -35.6585
    },
    {
        "cidade": "Barra de Santa Rosa",
        "uf": "PB",
        "lat": -6.71816,
        "lng": -36.0671
    },
    {
        "cidade": "Barra de Santana",
        "uf": "PB",
        "lat": -7.51809,
        "lng": -35.9913
    },
    {
        "cidade": "Barra de Santo Antônio",
        "uf": "AL",
        "lat": -9.4023,
        "lng": -35.5101
    },
    {
        "cidade": "Barra de São Francisco",
        "uf": "ES",
        "lat": -18.7548,
        "lng": -40.8965
    },
    {
        "cidade": "Barra de São Miguel",
        "uf": "PB",
        "lat": -7.74603,
        "lng": -36.3209
    },
    {
        "cidade": "Barra de São Miguel",
        "uf": "AL",
        "lat": -9.83842,
        "lng": -35.9057
    },
    {
        "cidade": "Barra do Bugres",
        "uf": "MT",
        "lat": -15.0702,
        "lng": -57.1878
    },
    {
        "cidade": "Barra do Chapéu",
        "uf": "SP",
        "lat": -24.4722,
        "lng": -49.0238
    },
    {
        "cidade": "Barra do Choça",
        "uf": "BA",
        "lat": -14.8654,
        "lng": -40.5791
    },
    {
        "cidade": "Barra do Corda",
        "uf": "MA",
        "lat": -5.49682,
        "lng": -45.2485
    },
    {
        "cidade": "Barra do Garças",
        "uf": "MT",
        "lat": -15.8804,
        "lng": -52.264
    },
    {
        "cidade": "Barra do Guarita",
        "uf": "RS",
        "lat": -27.1927,
        "lng": -53.7109
    },
    {
        "cidade": "Barra do Jacaré",
        "uf": "PR",
        "lat": -23.116,
        "lng": -50.1842
    },
    {
        "cidade": "Barra do Mendes",
        "uf": "BA",
        "lat": -11.81,
        "lng": -42.059
    },
    {
        "cidade": "Barra do Ouro",
        "uf": "TO",
        "lat": -7.69593,
        "lng": -47.6776
    },
    {
        "cidade": "Barra do Piraí",
        "uf": "RJ",
        "lat": -22.4715,
        "lng": -43.8269
    },
    {
        "cidade": "Barra do Quaraí",
        "uf": "RS",
        "lat": -30.2029,
        "lng": -57.5497
    },
    {
        "cidade": "Barra do Ribeiro",
        "uf": "RS",
        "lat": -30.2939,
        "lng": -51.3014
    },
    {
        "cidade": "Barra do Rio Azul",
        "uf": "RS",
        "lat": -27.4069,
        "lng": -52.4084
    },
    {
        "cidade": "Barra do Rocha",
        "uf": "BA",
        "lat": -14.2,
        "lng": -39.5991
    },
    {
        "cidade": "Barra do Turvo",
        "uf": "SP",
        "lat": -24.759,
        "lng": -48.5013
    },
    {
        "cidade": "Barra dos Coqueiros",
        "uf": "SE",
        "lat": -10.8996,
        "lng": -37.0323
    },
    {
        "cidade": "Barra Funda",
        "uf": "RS",
        "lat": -27.9205,
        "lng": -53.0391
    },
    {
        "cidade": "Barra Longa",
        "uf": "MG",
        "lat": -20.2869,
        "lng": -43.0402
    },
    {
        "cidade": "Barra Mansa",
        "uf": "RJ",
        "lat": -22.5481,
        "lng": -44.1752
    },
    {
        "cidade": "Barra Velha",
        "uf": "SC",
        "lat": -26.637,
        "lng": -48.6933
    },
    {
        "cidade": "Barracão",
        "uf": "RS",
        "lat": -27.6739,
        "lng": -51.4585
    },
    {
        "cidade": "Barracão",
        "uf": "PR",
        "lat": -26.2502,
        "lng": -53.6324
    },
    {
        "cidade": "Barras",
        "uf": "PI",
        "lat": -4.24468,
        "lng": -42.2922
    },
    {
        "cidade": "Barreira",
        "uf": "CE",
        "lat": -4.28921,
        "lng": -38.6429
    },
    {
        "cidade": "Barreiras",
        "uf": "BA",
        "lat": -12.1439,
        "lng": -44.9968
    },
    {
        "cidade": "Barreiras do Piauí",
        "uf": "PI",
        "lat": -9.9296,
        "lng": -45.4702
    },
    {
        "cidade": "Barreirinha",
        "uf": "AM",
        "lat": -2.79886,
        "lng": -57.0679
    },
    {
        "cidade": "Barreirinhas",
        "uf": "MA",
        "lat": -2.75863,
        "lng": -42.8232
    },
    {
        "cidade": "Barreiros",
        "uf": "PE",
        "lat": -8.81605,
        "lng": -35.1832
    },
    {
        "cidade": "Barretos",
        "uf": "SP",
        "lat": -20.5531,
        "lng": -48.5698
    },
    {
        "cidade": "Barrinha",
        "uf": "SP",
        "lat": -21.1864,
        "lng": -48.1636
    },
    {
        "cidade": "Barro",
        "uf": "CE",
        "lat": -7.17188,
        "lng": -38.7741
    },
    {
        "cidade": "Barro Alto",
        "uf": "BA",
        "lat": -11.7605,
        "lng": -41.9054
    },
    {
        "cidade": "Barro Alto",
        "uf": "GO",
        "lat": -14.9658,
        "lng": -48.9086
    },
    {
        "cidade": "Barro Duro",
        "uf": "PI",
        "lat": -5.81673,
        "lng": -42.5147
    },
    {
        "cidade": "Barro Preto",
        "uf": "BA",
        "lat": -14.7948,
        "lng": -39.476
    },
    {
        "cidade": "Barrocas",
        "uf": "BA",
        "lat": -11.5272,
        "lng": -39.0776
    },
    {
        "cidade": "Barrolândia",
        "uf": "TO",
        "lat": -9.83404,
        "lng": -48.7252
    },
    {
        "cidade": "Barroquinha",
        "uf": "CE",
        "lat": -3.02051,
        "lng": -41.1358
    },
    {
        "cidade": "Barros Cassal",
        "uf": "RS",
        "lat": -29.0947,
        "lng": -52.5836
    },
    {
        "cidade": "Barroso",
        "uf": "MG",
        "lat": -21.1907,
        "lng": -43.972
    },
    {
        "cidade": "Barueri",
        "uf": "SP",
        "lat": -23.5057,
        "lng": -46.879
    },
    {
        "cidade": "Bastos",
        "uf": "SP",
        "lat": -21.921,
        "lng": -50.7357
    },
    {
        "cidade": "Bataguassu",
        "uf": "MS",
        "lat": -21.7159,
        "lng": -52.4221
    },
    {
        "cidade": "Batalha",
        "uf": "PI",
        "lat": -4.0223,
        "lng": -42.0787
    },
    {
        "cidade": "Batalha",
        "uf": "AL",
        "lat": -9.6742,
        "lng": -37.133
    },
    {
        "cidade": "Batatais",
        "uf": "SP",
        "lat": -20.8929,
        "lng": -47.5921
    },
    {
        "cidade": "Batayporã",
        "uf": "MS",
        "lat": -22.2944,
        "lng": -53.2705
    },
    {
        "cidade": "Baturité",
        "uf": "CE",
        "lat": -4.32598,
        "lng": -38.8812
    },
    {
        "cidade": "Bauru",
        "uf": "SP",
        "lat": -22.3246,
        "lng": -49.0871
    },
    {
        "cidade": "Bayeux",
        "uf": "PB",
        "lat": -7.1238,
        "lng": -34.9293
    },
    {
        "cidade": "Bebedouro",
        "uf": "SP",
        "lat": -20.9491,
        "lng": -48.4791
    },
    {
        "cidade": "Beberibe",
        "uf": "CE",
        "lat": -4.17741,
        "lng": -38.1271
    },
    {
        "cidade": "Bela Cruz",
        "uf": "CE",
        "lat": -3.04996,
        "lng": -40.1671
    },
    {
        "cidade": "Bela Vista",
        "uf": "MS",
        "lat": -22.1073,
        "lng": -56.5263
    },
    {
        "cidade": "Bela Vista da Caroba",
        "uf": "PR",
        "lat": -25.8842,
        "lng": -53.6725
    },
    {
        "cidade": "Bela Vista de Goiás",
        "uf": "GO",
        "lat": -16.9693,
        "lng": -48.9513
    },
    {
        "cidade": "Bela Vista de Minas",
        "uf": "MG",
        "lat": -19.8302,
        "lng": -43.0922
    },
    {
        "cidade": "Bela Vista do Maranhão",
        "uf": "MA",
        "lat": -3.72618,
        "lng": -45.3075
    },
    {
        "cidade": "Bela Vista do Paraíso",
        "uf": "PR",
        "lat": -22.9937,
        "lng": -51.1927
    },
    {
        "cidade": "Bela Vista do Piauí",
        "uf": "PI",
        "lat": -7.98809,
        "lng": -41.8675
    },
    {
        "cidade": "Bela Vista do Toldo",
        "uf": "SC",
        "lat": -26.2746,
        "lng": -50.4664
    },
    {
        "cidade": "Belágua",
        "uf": "MA",
        "lat": -3.15485,
        "lng": -43.5122
    },
    {
        "cidade": "Belém",
        "uf": "PA",
        "lat": -1.4554,
        "lng": -48.4898
    },
    {
        "cidade": "Belém",
        "uf": "PB",
        "lat": -6.74261,
        "lng": -35.5166
    },
    {
        "cidade": "Belém",
        "uf": "AL",
        "lat": -9.57047,
        "lng": -36.4904
    },
    {
        "cidade": "Belém de Maria",
        "uf": "PE",
        "lat": -8.62504,
        "lng": -35.8335
    },
    {
        "cidade": "Belém do Brejo do Cruz",
        "uf": "PB",
        "lat": -6.18515,
        "lng": -37.5348
    },
    {
        "cidade": "Belém do Piauí",
        "uf": "PI",
        "lat": -7.36652,
        "lng": -40.9688
    },
    {
        "cidade": "Belém do São Francisco",
        "uf": "PE",
        "lat": -8.75046,
        "lng": -38.9623
    },
    {
        "cidade": "Belford Roxo",
        "uf": "RJ",
        "lat": -22.764,
        "lng": -43.3992
    },
    {
        "cidade": "Belmiro Braga",
        "uf": "MG",
        "lat": -21.944,
        "lng": -43.4084
    },
    {
        "cidade": "Belmonte",
        "uf": "SC",
        "lat": -26.843,
        "lng": -53.5758
    },
    {
        "cidade": "Belmonte",
        "uf": "BA",
        "lat": -15.8608,
        "lng": -38.8758
    },
    {
        "cidade": "Belo Campo",
        "uf": "BA",
        "lat": -15.0334,
        "lng": -41.2652
    },
    {
        "cidade": "Belo Horizonte",
        "uf": "MG",
        "lat": -19.9102,
        "lng": -43.9266
    },
    {
        "cidade": "Belo Jardim",
        "uf": "PE",
        "lat": -8.3313,
        "lng": -36.4258
    },
    {
        "cidade": "Belo Monte",
        "uf": "AL",
        "lat": -9.82272,
        "lng": -37.277
    },
    {
        "cidade": "Belo Oriente",
        "uf": "MG",
        "lat": -19.2199,
        "lng": -42.4828
    },
    {
        "cidade": "Belo Vale",
        "uf": "MG",
        "lat": -20.4077,
        "lng": -44.0275
    },
    {
        "cidade": "Belterra",
        "uf": "PA",
        "lat": -2.63609,
        "lng": -54.9374
    },
    {
        "cidade": "Beneditinos",
        "uf": "PI",
        "lat": -5.45676,
        "lng": -42.3638
    },
    {
        "cidade": "Benedito Leite",
        "uf": "MA",
        "lat": -7.21037,
        "lng": -44.5577
    },
    {
        "cidade": "Benedito Novo",
        "uf": "SC",
        "lat": -26.781,
        "lng": -49.3593
    },
    {
        "cidade": "Benevides",
        "uf": "PA",
        "lat": -1.36183,
        "lng": -48.2434
    },
    {
        "cidade": "Benjamin Constant",
        "uf": "AM",
        "lat": -4.37768,
        "lng": -70.0342
    },
    {
        "cidade": "Benjamin Constant do Sul",
        "uf": "RS",
        "lat": -27.5086,
        "lng": -52.5995
    },
    {
        "cidade": "Bento de Abreu",
        "uf": "SP",
        "lat": -21.2686,
        "lng": -50.814
    },
    {
        "cidade": "Bento Fernandes",
        "uf": "RN",
        "lat": -5.69906,
        "lng": -35.813
    },
    {
        "cidade": "Bento Gonçalves",
        "uf": "RS",
        "lat": -29.1662,
        "lng": -51.5165
    },
    {
        "cidade": "Bequimão",
        "uf": "MA",
        "lat": -2.44162,
        "lng": -44.7842
    },
    {
        "cidade": "Berilo",
        "uf": "MG",
        "lat": -16.9567,
        "lng": -42.4606
    },
    {
        "cidade": "Berizal",
        "uf": "MG",
        "lat": -15.61,
        "lng": -41.7432
    },
    {
        "cidade": "Bernardino Batista",
        "uf": "PB",
        "lat": -6.44572,
        "lng": -38.5521
    },
    {
        "cidade": "Bernardino de Campos",
        "uf": "SP",
        "lat": -23.0164,
        "lng": -49.4679
    },
    {
        "cidade": "Bernardo do Mearim",
        "uf": "MA",
        "lat": -4.62666,
        "lng": -44.7608
    },
    {
        "cidade": "Bernardo Sayão",
        "uf": "TO",
        "lat": -7.87481,
        "lng": -48.8893
    },
    {
        "cidade": "Bertioga",
        "uf": "SP",
        "lat": -23.8486,
        "lng": -46.1396
    },
    {
        "cidade": "Bertolínia",
        "uf": "PI",
        "lat": -7.63338,
        "lng": -43.9498
    },
    {
        "cidade": "Bertópolis",
        "uf": "MG",
        "lat": -17.059,
        "lng": -40.58
    },
    {
        "cidade": "Beruri",
        "uf": "AM",
        "lat": -3.89874,
        "lng": -61.3616
    },
    {
        "cidade": "Betânia",
        "uf": "PE",
        "lat": -8.26787,
        "lng": -38.0345
    },
    {
        "cidade": "Betânia do Piauí",
        "uf": "PI",
        "lat": -8.14376,
        "lng": -40.7989
    },
    {
        "cidade": "Betim",
        "uf": "MG",
        "lat": -19.9668,
        "lng": -44.2008
    },
    {
        "cidade": "Bezerros",
        "uf": "PE",
        "lat": -8.2328,
        "lng": -35.796
    },
    {
        "cidade": "Bias Fortes",
        "uf": "MG",
        "lat": -21.602,
        "lng": -43.7574
    },
    {
        "cidade": "Bicas",
        "uf": "MG",
        "lat": -21.7232,
        "lng": -43.056
    },
    {
        "cidade": "Biguaçu",
        "uf": "SC",
        "lat": -27.496,
        "lng": -48.6598
    },
    {
        "cidade": "Bilac",
        "uf": "SP",
        "lat": -21.404,
        "lng": -50.4746
    },
    {
        "cidade": "Biquinhas",
        "uf": "MG",
        "lat": -18.7754,
        "lng": -45.4974
    },
    {
        "cidade": "Birigui",
        "uf": "SP",
        "lat": -21.291,
        "lng": -50.3432
    },
    {
        "cidade": "Biritiba-Mirim",
        "uf": "SP",
        "lat": -23.5698,
        "lng": -46.0407
    },
    {
        "cidade": "Biritinga",
        "uf": "BA",
        "lat": -11.6072,
        "lng": -38.8051
    },
    {
        "cidade": "Bituruna",
        "uf": "PR",
        "lat": -26.1607,
        "lng": -51.5518
    },
    {
        "cidade": "Blumenau",
        "uf": "SC",
        "lat": -26.9155,
        "lng": -49.0709
    },
    {
        "cidade": "Boa Esperança",
        "uf": "PR",
        "lat": -24.2467,
        "lng": -52.7876
    },
    {
        "cidade": "Boa Esperança",
        "uf": "MG",
        "lat": -21.0927,
        "lng": -45.5612
    },
    {
        "cidade": "Boa Esperança",
        "uf": "ES",
        "lat": -18.5395,
        "lng": -40.3025
    },
    {
        "cidade": "Boa Esperança do Iguaçu",
        "uf": "PR",
        "lat": -25.6324,
        "lng": -53.2108
    },
    {
        "cidade": "Boa Esperança do Sul",
        "uf": "SP",
        "lat": -21.9918,
        "lng": -48.3906
    },
    {
        "cidade": "Boa Hora",
        "uf": "PI",
        "lat": -4.41404,
        "lng": -42.1357
    },
    {
        "cidade": "Boa Nova",
        "uf": "BA",
        "lat": -14.3598,
        "lng": -40.2064
    },
    {
        "cidade": "Boa Ventura",
        "uf": "PB",
        "lat": -7.40982,
        "lng": -38.2113
    },
    {
        "cidade": "Boa Ventura de São Roque",
        "uf": "PR",
        "lat": -24.8688,
        "lng": -51.6276
    },
    {
        "cidade": "Boa Viagem",
        "uf": "CE",
        "lat": -5.11258,
        "lng": -39.7337
    },
    {
        "cidade": "Boa Vista",
        "uf": "RR",
        "lat": 2.82384,
        "lng": -60.6753
    },
    {
        "cidade": "Boa Vista",
        "uf": "PB",
        "lat": -7.26365,
        "lng": -36.2357
    },
    {
        "cidade": "Boa Vista da Aparecida",
        "uf": "PR",
        "lat": -25.4308,
        "lng": -53.4117
    },
    {
        "cidade": "Boa Vista das Missões",
        "uf": "RS",
        "lat": -27.6671,
        "lng": -53.3102
    },
    {
        "cidade": "Boa Vista do Buricá",
        "uf": "RS",
        "lat": -27.6693,
        "lng": -54.1082
    },
    {
        "cidade": "Boa Vista do Cadeado",
        "uf": "RS",
        "lat": -28.5791,
        "lng": -53.8108
    },
    {
        "cidade": "Boa Vista do Gurupi",
        "uf": "MA",
        "lat": -1.77614,
        "lng": -46.3002
    },
    {
        "cidade": "Boa Vista do Incra",
        "uf": "RS",
        "lat": -28.8185,
        "lng": -53.391
    },
    {
        "cidade": "Boa Vista do Ramos",
        "uf": "AM",
        "lat": -2.97409,
        "lng": -57.5873
    },
    {
        "cidade": "Boa Vista do Sul",
        "uf": "RS",
        "lat": -29.3544,
        "lng": -51.6687
    },
    {
        "cidade": "Boa Vista do Tupim",
        "uf": "BA",
        "lat": -12.6498,
        "lng": -40.6064
    },
    {
        "cidade": "Boca da Mata",
        "uf": "AL",
        "lat": -9.64308,
        "lng": -36.2125
    },
    {
        "cidade": "Boca do Acre",
        "uf": "AM",
        "lat": -8.74232,
        "lng": -67.3919
    },
    {
        "cidade": "Bocaina",
        "uf": "PI",
        "lat": -6.94124,
        "lng": -41.3168
    },
    {
        "cidade": "Bocaina",
        "uf": "SP",
        "lat": -22.1365,
        "lng": -48.523
    },
    {
        "cidade": "Bocaina de Minas",
        "uf": "MG",
        "lat": -22.1697,
        "lng": -44.3972
    },
    {
        "cidade": "Bocaina do Sul",
        "uf": "SC",
        "lat": -27.7455,
        "lng": -49.9423
    },
    {
        "cidade": "Bocaiúva",
        "uf": "MG",
        "lat": -17.1135,
        "lng": -43.8104
    },
    {
        "cidade": "Bocaiúva do Sul",
        "uf": "PR",
        "lat": -25.2066,
        "lng": -49.1141
    },
    {
        "cidade": "Bodó",
        "uf": "RN",
        "lat": -5.98027,
        "lng": -36.4167
    },
    {
        "cidade": "Bodocó",
        "uf": "PE",
        "lat": -7.77759,
        "lng": -39.9338
    },
    {
        "cidade": "Bodoquena",
        "uf": "MS",
        "lat": -20.537,
        "lng": -56.7127
    },
    {
        "cidade": "Bofete",
        "uf": "SP",
        "lat": -23.1055,
        "lng": -48.2582
    },
    {
        "cidade": "Boituva",
        "uf": "SP",
        "lat": -23.2855,
        "lng": -47.6786
    },
    {
        "cidade": "Bom Conselho",
        "uf": "PE",
        "lat": -9.16919,
        "lng": -36.6857
    },
    {
        "cidade": "Bom Despacho",
        "uf": "MG",
        "lat": -19.7386,
        "lng": -45.2622
    },
    {
        "cidade": "Bom Jardim",
        "uf": "RJ",
        "lat": -22.1545,
        "lng": -42.4251
    },
    {
        "cidade": "Bom Jardim",
        "uf": "PE",
        "lat": -7.79695,
        "lng": -35.5784
    },
    {
        "cidade": "Bom Jardim",
        "uf": "MA",
        "lat": -3.54129,
        "lng": -45.606
    },
    {
        "cidade": "Bom Jardim da Serra",
        "uf": "SC",
        "lat": -28.3377,
        "lng": -49.6373
    },
    {
        "cidade": "Bom Jardim de Goiás",
        "uf": "GO",
        "lat": -16.2063,
        "lng": -52.1728
    },
    {
        "cidade": "Bom Jardim de Minas",
        "uf": "MG",
        "lat": -21.9479,
        "lng": -44.1885
    },
    {
        "cidade": "Bom Jesus",
        "uf": "SC",
        "lat": -26.7326,
        "lng": -52.3919
    },
    {
        "cidade": "Bom Jesus",
        "uf": "RS",
        "lat": -28.6697,
        "lng": -50.4295
    },
    {
        "cidade": "Bom Jesus",
        "uf": "PI",
        "lat": -9.07124,
        "lng": -44.359
    },
    {
        "cidade": "Bom Jesus",
        "uf": "RN",
        "lat": -5.98648,
        "lng": -35.5792
    },
    {
        "cidade": "Bom Jesus",
        "uf": "PB",
        "lat": -6.81601,
        "lng": -38.6453
    },
    {
        "cidade": "Bom Jesus da Lapa",
        "uf": "BA",
        "lat": -13.2506,
        "lng": -43.4108
    },
    {
        "cidade": "Bom Jesus da Penha",
        "uf": "MG",
        "lat": -21.0148,
        "lng": -46.5174
    },
    {
        "cidade": "Bom Jesus da Serra",
        "uf": "BA",
        "lat": -14.3663,
        "lng": -40.5126
    },
    {
        "cidade": "Bom Jesus das Selvas",
        "uf": "MA",
        "lat": -4.47638,
        "lng": -46.8641
    },
    {
        "cidade": "Bom Jesus de Goiás",
        "uf": "GO",
        "lat": -18.2173,
        "lng": -49.74
    },
    {
        "cidade": "Bom Jesus do Amparo",
        "uf": "MG",
        "lat": -19.7054,
        "lng": -43.4782
    },
    {
        "cidade": "Bom Jesus do Araguaia",
        "uf": "MT",
        "lat": -12.1706,
        "lng": -51.5032
    },
    {
        "cidade": "Bom Jesus do Galho",
        "uf": "MG",
        "lat": -19.836,
        "lng": -42.3165
    },
    {
        "cidade": "Bom Jesus do Itabapoana",
        "uf": "RJ",
        "lat": -21.1449,
        "lng": -41.6822
    },
    {
        "cidade": "Bom Jesus do Norte",
        "uf": "ES",
        "lat": -21.1173,
        "lng": -41.6731
    },
    {
        "cidade": "Bom Jesus do Oeste",
        "uf": "SC",
        "lat": -26.6927,
        "lng": -53.0967
    },
    {
        "cidade": "Bom Jesus do Sul",
        "uf": "PR",
        "lat": -26.1958,
        "lng": -53.5955
    },
    {
        "cidade": "Bom Jesus do Tocantins",
        "uf": "PA",
        "lat": -5.0424,
        "lng": -48.6047
    },
    {
        "cidade": "Bom Jesus do Tocantins",
        "uf": "TO",
        "lat": -8.96306,
        "lng": -48.165
    },
    {
        "cidade": "Bom Jesus dos Perdões",
        "uf": "SP",
        "lat": -23.1356,
        "lng": -46.4675
    },
    {
        "cidade": "Bom Lugar",
        "uf": "MA",
        "lat": -4.37311,
        "lng": -45.0326
    },
    {
        "cidade": "Bom Princípio",
        "uf": "RS",
        "lat": -29.4856,
        "lng": -51.3548
    },
    {
        "cidade": "Bom Princípio do Piauí",
        "uf": "PI",
        "lat": -3.19631,
        "lng": -41.6403
    },
    {
        "cidade": "Bom Progresso",
        "uf": "RS",
        "lat": -27.5399,
        "lng": -53.8716
    },
    {
        "cidade": "Bom Repouso",
        "uf": "MG",
        "lat": -22.4675,
        "lng": -46.144
    },
    {
        "cidade": "Bom Retiro",
        "uf": "SC",
        "lat": -27.799,
        "lng": -49.487
    },
    {
        "cidade": "Bom Retiro do Sul",
        "uf": "RS",
        "lat": -29.6071,
        "lng": -51.9456
    },
    {
        "cidade": "Bom Sucesso",
        "uf": "MG",
        "lat": -21.0329,
        "lng": -44.7537
    },
    {
        "cidade": "Bom Sucesso",
        "uf": "PR",
        "lat": -23.7063,
        "lng": -51.7671
    },
    {
        "cidade": "Bom Sucesso",
        "uf": "PB",
        "lat": -6.44176,
        "lng": -37.9234
    },
    {
        "cidade": "Bom Sucesso de Itararé",
        "uf": "SP",
        "lat": -24.3155,
        "lng": -49.1451
    },
    {
        "cidade": "Bom Sucesso do Sul",
        "uf": "PR",
        "lat": -26.0731,
        "lng": -52.8353
    },
    {
        "cidade": "Bombinhas",
        "uf": "SC",
        "lat": -27.1382,
        "lng": -48.5146
    },
    {
        "cidade": "Bonfim",
        "uf": "RR",
        "lat": 3.36161,
        "lng": -59.8333
    },
    {
        "cidade": "Bonfim",
        "uf": "MG",
        "lat": -20.3302,
        "lng": -44.2366
    },
    {
        "cidade": "Bonfim do Piauí",
        "uf": "PI",
        "lat": -9.1605,
        "lng": -42.8865
    },
    {
        "cidade": "Bonfinópolis",
        "uf": "GO",
        "lat": -16.6173,
        "lng": -48.9616
    },
    {
        "cidade": "Bonfinópolis de Minas",
        "uf": "MG",
        "lat": -16.568,
        "lng": -45.9839
    },
    {
        "cidade": "Boninal",
        "uf": "BA",
        "lat": -12.7069,
        "lng": -41.8286
    },
    {
        "cidade": "Bonito",
        "uf": "PE",
        "lat": -8.47163,
        "lng": -35.7292
    },
    {
        "cidade": "Bonito",
        "uf": "BA",
        "lat": -11.9668,
        "lng": -41.2647
    },
    {
        "cidade": "Bonito",
        "uf": "PA",
        "lat": -1.36745,
        "lng": -47.3066
    },
    {
        "cidade": "Bonito",
        "uf": "MS",
        "lat": -21.1261,
        "lng": -56.4836
    },
    {
        "cidade": "Bonito de Minas",
        "uf": "MG",
        "lat": -15.3231,
        "lng": -44.7543
    },
    {
        "cidade": "Bonito de Santa Fé",
        "uf": "PB",
        "lat": -7.31341,
        "lng": -38.5133
    },
    {
        "cidade": "Bonópolis",
        "uf": "GO",
        "lat": -13.6329,
        "lng": -49.8106
    },
    {
        "cidade": "Boqueirão",
        "uf": "PB",
        "lat": -7.487,
        "lng": -36.1309
    },
    {
        "cidade": "Boqueirão do Leão",
        "uf": "RS",
        "lat": -29.3046,
        "lng": -52.4284
    },
    {
        "cidade": "Boqueirão do Piauí",
        "uf": "PI",
        "lat": -4.48181,
        "lng": -42.1212
    },
    {
        "cidade": "Boquim",
        "uf": "SE",
        "lat": -11.1397,
        "lng": -37.6195
    },
    {
        "cidade": "Boquira",
        "uf": "BA",
        "lat": -12.8205,
        "lng": -42.7324
    },
    {
        "cidade": "Borá",
        "uf": "SP",
        "lat": -22.2696,
        "lng": -50.5409
    },
    {
        "cidade": "Boracéia",
        "uf": "SP",
        "lat": -22.1926,
        "lng": -48.7808
    },
    {
        "cidade": "Borba",
        "uf": "AM",
        "lat": -4.39154,
        "lng": -59.5874
    },
    {
        "cidade": "Borborema",
        "uf": "PB",
        "lat": -6.80199,
        "lng": -35.6187
    },
    {
        "cidade": "Borborema",
        "uf": "SP",
        "lat": -21.6214,
        "lng": -49.0741
    },
    {
        "cidade": "Borda da Mata",
        "uf": "MG",
        "lat": -22.2707,
        "lng": -46.1653
    },
    {
        "cidade": "Borebi",
        "uf": "SP",
        "lat": -22.5728,
        "lng": -48.9707
    },
    {
        "cidade": "Borrazópolis",
        "uf": "PR",
        "lat": -23.9366,
        "lng": -51.5875
    },
    {
        "cidade": "Bossoroca",
        "uf": "RS",
        "lat": -28.7291,
        "lng": -54.9035
    },
    {
        "cidade": "Botelhos",
        "uf": "MG",
        "lat": -21.6412,
        "lng": -46.391
    },
    {
        "cidade": "Botucatu",
        "uf": "SP",
        "lat": -22.8837,
        "lng": -48.4437
    },
    {
        "cidade": "Botumirim",
        "uf": "MG",
        "lat": -16.8657,
        "lng": -43.0086
    },
    {
        "cidade": "Botuporã",
        "uf": "BA",
        "lat": -13.3772,
        "lng": -42.5163
    },
    {
        "cidade": "Botuverá",
        "uf": "SC",
        "lat": -27.2007,
        "lng": -49.0689
    },
    {
        "cidade": "Bozano",
        "uf": "RS",
        "lat": -28.3659,
        "lng": -53.772
    },
    {
        "cidade": "Braço do Norte",
        "uf": "SC",
        "lat": -28.2681,
        "lng": -49.1701
    },
    {
        "cidade": "Braço do Trombudo",
        "uf": "SC",
        "lat": -27.3586,
        "lng": -49.8821
    },
    {
        "cidade": "Braga",
        "uf": "RS",
        "lat": -27.6173,
        "lng": -53.7405
    },
    {
        "cidade": "Bragança",
        "uf": "PA",
        "lat": -1.06126,
        "lng": -46.7826
    },
    {
        "cidade": "Bragança Paulista",
        "uf": "SP",
        "lat": -22.9527,
        "lng": -46.5419
    },
    {
        "cidade": "Braganey",
        "uf": "PR",
        "lat": -24.8173,
        "lng": -53.1218
    },
    {
        "cidade": "Branquinha",
        "uf": "AL",
        "lat": -9.23342,
        "lng": -36.0162
    },
    {
        "cidade": "Brás Pires",
        "uf": "MG",
        "lat": -20.8419,
        "lng": -43.2406
    },
    {
        "cidade": "Brasil Novo",
        "uf": "PA",
        "lat": -3.29792,
        "lng": -52.534
    },
    {
        "cidade": "Brasilândia",
        "uf": "MS",
        "lat": -21.2544,
        "lng": -52.0365
    },
    {
        "cidade": "Brasilândia de Minas",
        "uf": "MG",
        "lat": -16.9999,
        "lng": -46.0081
    },
    {
        "cidade": "Brasilândia do Sul",
        "uf": "PR",
        "lat": -24.1978,
        "lng": -53.5275
    },
    {
        "cidade": "Brasilândia do Tocantins",
        "uf": "TO",
        "lat": -8.38918,
        "lng": -48.4822
    },
    {
        "cidade": "Brasiléia",
        "uf": "AC",
        "lat": -10.995,
        "lng": -68.7497
    },
    {
        "cidade": "Brasileira",
        "uf": "PI",
        "lat": -4.1337,
        "lng": -41.7859
    },
    {
        "cidade": "Brasília",
        "uf": "DF",
        "lat": -15.7795,
        "lng": -47.9297
    },
    {
        "cidade": "Brasília de Minas",
        "uf": "MG",
        "lat": -16.2104,
        "lng": -44.4299
    },
    {
        "cidade": "Brasnorte",
        "uf": "MT",
        "lat": -12.1474,
        "lng": -57.9833
    },
    {
        "cidade": "Braúna",
        "uf": "SP",
        "lat": -21.499,
        "lng": -50.3175
    },
    {
        "cidade": "Braúnas",
        "uf": "MG",
        "lat": -19.0562,
        "lng": -42.7099
    },
    {
        "cidade": "Brazabrantes",
        "uf": "GO",
        "lat": -16.4281,
        "lng": -49.3863
    },
    {
        "cidade": "Brazópolis",
        "uf": "MG",
        "lat": -22.4743,
        "lng": -45.6166
    },
    {
        "cidade": "Brejão",
        "uf": "PE",
        "lat": -9.02915,
        "lng": -36.566
    },
    {
        "cidade": "Brejetuba",
        "uf": "ES",
        "lat": -20.1395,
        "lng": -41.2954
    },
    {
        "cidade": "Brejinho",
        "uf": "RN",
        "lat": -6.18566,
        "lng": -35.3591
    },
    {
        "cidade": "Brejinho",
        "uf": "PE",
        "lat": -7.34694,
        "lng": -37.2865
    },
    {
        "cidade": "Brejinho de Nazaré",
        "uf": "TO",
        "lat": -11.0058,
        "lng": -48.5683
    },
    {
        "cidade": "Brejo",
        "uf": "MA",
        "lat": -3.67796,
        "lng": -42.7527
    },
    {
        "cidade": "Brejo Alegre",
        "uf": "SP",
        "lat": -21.1651,
        "lng": -50.1861
    },
    {
        "cidade": "Brejo da Madre de Deus",
        "uf": "PE",
        "lat": -8.14933,
        "lng": -36.3741
    },
    {
        "cidade": "Brejo de Areia",
        "uf": "MA",
        "lat": -4.334,
        "lng": -45.581
    },
    {
        "cidade": "Brejo do Cruz",
        "uf": "PB",
        "lat": -6.34185,
        "lng": -37.4943
    },
    {
        "cidade": "Brejo do Piauí",
        "uf": "PI",
        "lat": -8.20314,
        "lng": -42.8229
    },
    {
        "cidade": "Brejo dos Santos",
        "uf": "PB",
        "lat": -6.37065,
        "lng": -37.8253
    },
    {
        "cidade": "Brejo Grande",
        "uf": "SE",
        "lat": -10.4297,
        "lng": -36.4611
    },
    {
        "cidade": "Brejo Grande do Araguaia",
        "uf": "PA",
        "lat": -5.69822,
        "lng": -48.4103
    },
    {
        "cidade": "Brejo Santo",
        "uf": "CE",
        "lat": -7.48469,
        "lng": -38.9799
    },
    {
        "cidade": "Brejões",
        "uf": "BA",
        "lat": -13.1039,
        "lng": -39.7988
    },
    {
        "cidade": "Brejolândia",
        "uf": "BA",
        "lat": -12.4815,
        "lng": -43.9679
    },
    {
        "cidade": "Breu Branco",
        "uf": "PA",
        "lat": -3.77191,
        "lng": -49.5735
    },
    {
        "cidade": "Breves",
        "uf": "PA",
        "lat": -1.68036,
        "lng": -50.4791
    },
    {
        "cidade": "Britânia",
        "uf": "GO",
        "lat": -15.2428,
        "lng": -51.1602
    },
    {
        "cidade": "Brochier",
        "uf": "RS",
        "lat": -29.5501,
        "lng": -51.5945
    },
    {
        "cidade": "Brodowski",
        "uf": "SP",
        "lat": -20.9845,
        "lng": -47.6572
    },
    {
        "cidade": "Brotas",
        "uf": "SP",
        "lat": -22.2795,
        "lng": -48.1251
    },
    {
        "cidade": "Brotas de Macaúbas",
        "uf": "BA",
        "lat": -11.9915,
        "lng": -42.6326
    },
    {
        "cidade": "Brumadinho",
        "uf": "MG",
        "lat": -20.151,
        "lng": -44.2007
    },
    {
        "cidade": "Brumado",
        "uf": "BA",
        "lat": -14.2021,
        "lng": -41.6696
    },
    {
        "cidade": "Brunópolis",
        "uf": "SC",
        "lat": -27.3058,
        "lng": -50.8684
    },
    {
        "cidade": "Brusque",
        "uf": "SC",
        "lat": -27.0977,
        "lng": -48.9107
    },
    {
        "cidade": "Bueno Brandão",
        "uf": "MG",
        "lat": -22.4383,
        "lng": -46.3491
    },
    {
        "cidade": "Buenópolis",
        "uf": "MG",
        "lat": -17.8744,
        "lng": -44.1775
    },
    {
        "cidade": "Buenos Aires",
        "uf": "PE",
        "lat": -7.72449,
        "lng": -35.3182
    },
    {
        "cidade": "Buerarema",
        "uf": "BA",
        "lat": -14.9595,
        "lng": -39.3028
    },
    {
        "cidade": "Bugre",
        "uf": "MG",
        "lat": -19.4231,
        "lng": -42.2552
    },
    {
        "cidade": "Buíque",
        "uf": "PE",
        "lat": -8.61954,
        "lng": -37.1606
    },
    {
        "cidade": "Bujari",
        "uf": "AC",
        "lat": -9.81528,
        "lng": -67.955
    },
    {
        "cidade": "Bujaru",
        "uf": "PA",
        "lat": -1.51762,
        "lng": -48.0381
    },
    {
        "cidade": "Buri",
        "uf": "SP",
        "lat": -23.7977,
        "lng": -48.5958
    },
    {
        "cidade": "Buritama",
        "uf": "SP",
        "lat": -21.0661,
        "lng": -50.1475
    },
    {
        "cidade": "Buriti",
        "uf": "MA",
        "lat": -3.94169,
        "lng": -42.9179
    },
    {
        "cidade": "Buriti Alegre",
        "uf": "GO",
        "lat": -18.1378,
        "lng": -49.0404
    },
    {
        "cidade": "Buriti Bravo",
        "uf": "MA",
        "lat": -5.83239,
        "lng": -43.8353
    },
    {
        "cidade": "Buriti de Goiás",
        "uf": "GO",
        "lat": -16.1792,
        "lng": -50.4302
    },
    {
        "cidade": "Buriti do Tocantins",
        "uf": "TO",
        "lat": -5.31448,
        "lng": -48.2271
    },
    {
        "cidade": "Buriti dos Lopes",
        "uf": "PI",
        "lat": -3.18259,
        "lng": -41.8695
    },
    {
        "cidade": "Buriti dos Montes",
        "uf": "PI",
        "lat": -5.30584,
        "lng": -41.0933
    },
    {
        "cidade": "Buriticupu",
        "uf": "MA",
        "lat": -4.32375,
        "lng": -46.4409
    },
    {
        "cidade": "Buritinópolis",
        "uf": "GO",
        "lat": -14.4772,
        "lng": -46.4076
    },
    {
        "cidade": "Buritirama",
        "uf": "BA",
        "lat": -10.7171,
        "lng": -43.6302
    },
    {
        "cidade": "Buritirana",
        "uf": "MA",
        "lat": -5.59823,
        "lng": -47.0131
    },
    {
        "cidade": "Buritis",
        "uf": "RO",
        "lat": -10.1943,
        "lng": -63.8324
    },
    {
        "cidade": "Buritis",
        "uf": "MG",
        "lat": -15.6218,
        "lng": -46.4221
    },
    {
        "cidade": "Buritizal",
        "uf": "SP",
        "lat": -20.1911,
        "lng": -47.7096
    },
    {
        "cidade": "Buritizeiro",
        "uf": "MG",
        "lat": -17.3656,
        "lng": -44.9606
    },
    {
        "cidade": "Butiá",
        "uf": "RS",
        "lat": -30.1179,
        "lng": -51.9601
    },
    {
        "cidade": "Caapiranga",
        "uf": "AM",
        "lat": -3.31537,
        "lng": -61.2206
    },
    {
        "cidade": "Caaporã",
        "uf": "PB",
        "lat": -7.51351,
        "lng": -34.9055
    },
    {
        "cidade": "Caarapó",
        "uf": "MS",
        "lat": -22.6368,
        "lng": -54.8209
    },
    {
        "cidade": "Caatiba",
        "uf": "BA",
        "lat": -14.9699,
        "lng": -40.4092
    },
    {
        "cidade": "Cabaceiras",
        "uf": "PB",
        "lat": -7.48899,
        "lng": -36.287
    },
    {
        "cidade": "Cabaceiras do Paraguaçu",
        "uf": "BA",
        "lat": -12.5317,
        "lng": -39.1902
    },
    {
        "cidade": "Cabeceira Grande",
        "uf": "MG",
        "lat": -16.0335,
        "lng": -47.0862
    },
    {
        "cidade": "Cabeceiras",
        "uf": "GO",
        "lat": -15.7995,
        "lng": -46.9265
    },
    {
        "cidade": "Cabeceiras do Piauí",
        "uf": "PI",
        "lat": -4.4773,
        "lng": -42.3069
    },
    {
        "cidade": "Cabedelo",
        "uf": "PB",
        "lat": -6.98731,
        "lng": -34.8284
    },
    {
        "cidade": "Cabixi",
        "uf": "RO",
        "lat": -13.4945,
        "lng": -60.552
    },